%  GPST                  latitude(deg) longitude(deg)  height(m)   Q  ns
2020/04/04 10:05:48.000   37.352721000 -121.915773000    20.0000   5  12
2020/04/04 10:05:48.500   37.352737977 -121.915791545    20.0000   5  12
2020/04/04 10:05:49.000   37.352754954 -121.915810091    20.0000   5  12
2020/04/04 10:05:49.500   37.352771931 -121.915828636    20.0000   5  12
2020/04/04 10:05:50.000   37.352788908 -121.915847182    20.0000   5  12
2020/04/04 10:05:50.500   37.352805885 -121.915865727    20.0000   5  12
2020/04/04 10:05:51.000   37.352822862 -121.915884273    20.0000   5  12
2020/04/04 10:05:51.500   37.352839840 -121.915902818    20.0000   5  12
2020/04/04 10:05:52.000   37.352856817 -121.915921364    20.0000   5  12
2020/04/04 10:05:52.500   37.352873794 -121.915939909    20.0000   5  12
2020/04/04 10:05:53.000   37.352890771 -121.915958455    20.0000   5  12
2020/04/04 10:05:53.500   37.352907889 -121.915977155    20.0001   5  12
2020/04/04 10:05:54.000   37.352925857 -121.915996782    20.0001   5  12
2020/04/04 10:05:54.500   37.352945522 -121.916018264    20.0001   5  12
2020/04/04 10:05:55.000   37.352967733 -121.916042528    20.0001   5  12
2020/04/04 10:05:55.500   37.352993340 -121.916070501    20.0001   5  12
2020/04/04 10:05:56.000   37.353023192 -121.916103110    20.0002   5  12
2020/04/04 10:05:56.500   37.353057995 -121.916141129    20.0002   5  12
2020/04/04 10:05:57.000   37.353097891 -121.916184711    20.0002   5  12
2020/04/04 10:05:57.500   37.353142880 -121.916233857    20.0003   5  12
2020/04/04 10:05:58.000   37.353192962 -121.916288566    20.0004   5  12
2020/04/04 10:05:58.500   37.353248137 -121.916348840    20.0005   5  12
2020/04/04 10:05:59.000   37.353308405 -121.916414677    20.0006   5  12
2020/04/04 10:05:59.500   37.353373767 -121.916486078    20.0007   5  12
2020/04/04 10:06:00.000   37.353444221 -121.916563043    20.0009   5  12
2020/04/04 10:06:00.500   37.353519769 -121.916645572    20.0011   5  12
2020/04/04 10:06:01.000   37.353600409 -121.916733665    20.0013   5  12
2020/04/04 10:06:01.500   37.353686143 -121.916827322    20.0016   5  12
2020/04/04 10:06:02.000   37.353776969 -121.916926542    20.0019   5  12
2020/04/04 10:06:02.500   37.353872888 -121.917031327    20.0023   5  12
2020/04/04 10:06:03.000   37.353973901 -121.917141676    20.0027   5  12
2020/04/04 10:06:03.500   37.354080006 -121.917257589    20.0031   5  12
2020/04/04 10:06:04.000   37.354191205 -121.917379066    20.0037   5  12
2020/04/04 10:06:04.500   37.354307496 -121.917506108    20.0043   5  12
2020/04/04 10:06:05.000   37.354428880 -121.917638713    20.0050   5  12
2020/04/04 10:06:05.500   37.354555357 -121.917776883    20.0057   5  12
2020/04/04 10:06:06.000   37.354686927 -121.917920618    20.0066   5  12
2020/04/04 10:06:06.500   37.354823589 -121.918069917    20.0075   5  12
2020/04/04 10:06:07.000   37.354965345 -121.918224780    20.0086   5  12
2020/04/04 10:06:07.500   37.355112193 -121.918385208    20.0097   5  12
2020/04/04 10:06:08.000   37.355264134 -121.918551201    20.0110   5  12
2020/04/04 10:06:08.500   37.355421168 -121.918722758    20.0124   5  12
2020/04/04 10:06:09.000   37.355583295 -121.918899880    20.0139   5  12
2020/04/04 10:06:09.500   37.355750514 -121.919082567    20.0156   5  12
2020/04/04 10:06:10.000   37.355922826 -121.919270818    20.0174   5  12
2020/04/04 10:06:10.500   37.356100230 -121.919464635    20.0194   5  12
2020/04/04 10:06:11.000   37.356282727 -121.919664017    20.0216   5  12
2020/04/04 10:06:11.500   37.356470317 -121.919868964    20.0239   5  12
2020/04/04 10:06:12.000   37.356663000 -121.920079476    20.0264   5  12
2020/04/04 10:06:12.500   37.356860774 -121.920295554    20.0292   5  12
2020/04/04 10:06:13.000   37.357063642 -121.920517197    20.0321   5  12
2020/04/04 10:06:13.500   37.357271602 -121.920744405    20.0352   5  12
2020/04/04 10:06:14.000   37.357484654 -121.920977179    20.0386   5  12
2020/04/04 10:06:14.500   37.357702798 -121.921215519    20.0422   5  12
2020/04/04 10:06:15.000   37.357926035 -121.921459424    20.0461   5  12
2020/04/04 10:06:15.500   37.358154365 -121.921708896    20.0502   5  12
2020/04/04 10:06:16.000   37.358387786 -121.921963933    20.0547   5  12
2020/04/04 10:06:16.500   37.358626230 -121.922224459    20.0594   5  12
2020/04/04 10:06:17.000   37.358869341 -121.922490088    20.0643   5  12
2020/04/04 10:06:17.500   37.359116695 -121.922760355    20.0696   5  12
2020/04/04 10:06:18.000   37.359367868 -121.923034798    20.0752   5  12
2020/04/04 10:06:18.500   37.359622436 -121.923312952    20.0811   5  12
2020/04/04 10:06:19.000   37.359879974 -121.923594354    20.0872   5  12
2020/04/04 10:06:19.500   37.360140058 -121.923878541    20.0937   5  12
2020/04/04 10:06:20.000   37.360402263 -121.924165048    20.1004   5  12
2020/04/04 10:06:20.500   37.360666164 -121.924453412    20.1074   5  12
2020/04/04 10:06:21.000   37.360931339 -121.924743169    20.1147   5  12
2020/04/04 10:06:21.500   37.361197361 -121.925033856    20.1223   5  12
2020/04/04 10:06:22.000   37.361463807 -121.925325009    20.1301   5  12
2020/04/04 10:06:22.500   37.361730323 -121.925616241    20.3882   5  12
2020/04/04 10:06:23.000   37.361996838 -121.925907475    21.1465   5  12
2020/04/04 10:06:23.500   37.362263352 -121.926198711    22.4050   5  12
2020/04/04 10:06:24.000   37.362529866 -121.926489948    24.1638   5  12
2020/04/04 10:06:24.500   37.362796378 -121.926781188    26.4228   5  12
2020/04/04 10:06:25.000   37.363062889 -121.927072429    29.1820   5  12
2020/04/04 10:06:25.500   37.363329400 -121.927363672    32.4416   5  12
2020/04/04 10:06:26.000   37.363595909 -121.927654916    36.2013   5  12
2020/04/04 10:06:26.500   37.363862417 -121.927946162    40.4613   5  12
2020/04/04 10:06:27.000   37.364128923 -121.928237410    45.2215   5  12
2020/04/04 10:06:27.500   37.364395428 -121.928528659    50.4820   5  12
2020/04/04 10:06:28.000   37.364661932 -121.928819909    56.2427   5  12
2020/04/04 10:06:28.500   37.364928434 -121.929111160    62.5037   5  12
2020/04/04 10:06:29.000   37.365194935 -121.929402412    69.2649   5  12
2020/04/04 10:06:29.500   37.365461434 -121.929693666    76.5263   5  12
2020/04/04 10:06:30.000   37.365727932 -121.929984921    84.2880   5  12
2020/04/04 10:06:30.500   37.365994427 -121.930276176    92.5499   5  12
2020/04/04 10:06:31.000   37.366260921 -121.930567433   101.3121   5  12
2020/04/04 10:06:31.500   37.366527413 -121.930858690   110.5745   5  12
2020/04/04 10:06:32.000   37.366793904 -121.931149948   120.3371   5  12
2020/04/04 10:06:32.500   37.367060392 -121.931441207   130.3420   5  12
2020/04/04 10:06:33.000   37.367326879 -121.931732467   140.3472   5  12
2020/04/04 10:06:33.500   37.367593364 -121.932023729   150.3526   5  12
2020/04/04 10:06:34.000   37.367859848 -121.932314991   160.3583   5  12
2020/04/04 10:06:34.500   37.368126330 -121.932606255   170.3643   5  12
2020/04/04 10:06:35.000   37.368392810 -121.932897520   180.3704   5  12
2020/04/04 10:06:35.500   37.368659289 -121.933188785   190.3768   5  12
2020/04/04 10:06:36.000   37.368925767 -121.933480052   200.3835   5  12
2020/04/04 10:06:36.500   37.369192242 -121.933771321   210.3904   5  12
2020/04/04 10:06:37.000   37.369458717 -121.934062590   220.3975   5  12
2020/04/04 10:06:37.500   37.369725189 -121.934353860   230.4049   5  12
2020/04/04 10:06:38.000   37.369991661 -121.934645132   240.4125   5  12
2020/04/04 10:06:38.500   37.370258130 -121.934936405   250.4204   5  12
2020/04/04 10:06:39.000   37.370524598 -121.935227679   260.4285   5  12
2020/04/04 10:06:39.500   37.370791064 -121.935518954   270.4368   5  12
2020/04/04 10:06:40.000   37.371057529 -121.935810230   280.4454   5  12
2020/04/04 10:06:40.500   37.371323993 -121.936101508   290.4542   5  12
2020/04/04 10:06:41.000   37.371590454 -121.936392786   300.4633   5  12
2020/04/04 10:06:41.500   37.371856914 -121.936684066   310.4726   5  12
2020/04/04 10:06:42.000   37.372123373 -121.936975347   320.4821   5  12
2020/04/04 10:06:42.500   37.372389830 -121.937266629   330.4919   5  12
2020/04/04 10:06:43.000   37.372656286 -121.937557912   340.5020   5  12
2020/04/04 10:06:43.500   37.372922739 -121.937849196   350.5122   5  12
2020/04/04 10:06:44.000   37.373189192 -121.938140481   360.5228   5  12
2020/04/04 10:06:44.500   37.373455642 -121.938431768   370.5335   5  12
2020/04/04 10:06:45.000   37.373722092 -121.938723056   380.5445   5  12
2020/04/04 10:06:45.500   37.373988539 -121.939014344   390.5558   5  12
2020/04/04 10:06:46.000   37.374254985 -121.939305634   400.5672   5  12
2020/04/04 10:06:46.500   37.374521430 -121.939596926   410.5790   5  12
2020/04/04 10:06:47.000   37.374787873 -121.939888218   420.5909   5  12
2020/04/04 10:06:47.500   37.375054314 -121.940179511   430.6032   5  12
2020/04/04 10:06:48.000   37.375320754 -121.940470806   440.6156   5  12
2020/04/04 10:06:48.500   37.375587192 -121.940762102   450.6283   5  12
2020/04/04 10:06:49.000   37.375853629 -121.941053398   460.6412   5  12
2020/04/04 10:06:49.500   37.376120064 -121.941344697   470.6544   5  12
2020/04/04 10:06:50.000   37.376386497 -121.941635996   480.6678   5  12
2020/04/04 10:06:50.500   37.376652929 -121.941927296   490.6815   5  12
2020/04/04 10:06:51.000   37.376919359 -121.942218597   500.6954   5  12
2020/04/04 10:06:51.500   37.377185788 -121.942509900   510.7095   5  12
2020/04/04 10:06:52.000   37.377452215 -121.942801204   520.7239   5  12
2020/04/04 10:06:52.500   37.377718641 -121.943092509   530.7386   5  12
2020/04/04 10:06:53.000   37.377985065 -121.943383815   540.7534   5  12
2020/04/04 10:06:53.500   37.378251488 -121.943675122   550.7685   5  12
2020/04/04 10:06:54.000   37.378517908 -121.943966430   560.7839   5  12
2020/04/04 10:06:54.500   37.378784328 -121.944257740   570.7995   5  12
2020/04/04 10:06:55.000   37.379050746 -121.944549051   580.8153   5  12
2020/04/04 10:06:55.500   37.379317162 -121.944840362   590.8314   5  12
2020/04/04 10:06:56.000   37.379583577 -121.945131675   600.8477   5  12
2020/04/04 10:06:56.500   37.379849990 -121.945422989   610.8643   5  12
2020/04/04 10:06:57.000   37.380116401 -121.945714305   620.8811   5  12
2020/04/04 10:06:57.500   37.380382811 -121.946005621   630.8981   5  12
2020/04/04 10:06:58.000   37.380649220 -121.946296939   640.9154   5  12
2020/04/04 10:06:58.500   37.380915626 -121.946588257   650.9330   5  12
2020/04/04 10:06:59.000   37.381182032 -121.946879577   660.9507   5  12
2020/04/04 10:06:59.500   37.381448435 -121.947170898   670.9687   5  12
2020/04/04 10:07:00.000   37.381714837 -121.947462220   680.9870   5  12
2020/04/04 10:07:00.500   37.381981238 -121.947753543   691.0055   5  12
2020/04/04 10:07:01.000   37.382247637 -121.948044868   701.0242   5  12
2020/04/04 10:07:01.500   37.382514034 -121.948336193   711.0432   5  12
2020/04/04 10:07:02.000   37.382780430 -121.948627520   721.0624   5  12
2020/04/04 10:07:02.500   37.383046824 -121.948918848   731.0819   5  12
2020/04/04 10:07:03.000   37.383313217 -121.949210177   741.1016   5  12
2020/04/04 10:07:03.500   37.383579608 -121.949501507   751.1215   5  12
2020/04/04 10:07:04.000   37.383845998 -121.949792838   761.1417   5  12
2020/04/04 10:07:04.500   37.384112386 -121.950084171   771.1622   5  12
2020/04/04 10:07:05.000   37.384378772 -121.950375504   781.1828   5  12
2020/04/04 10:07:05.500   37.384645157 -121.950666839   791.2038   5  12
2020/04/04 10:07:06.000   37.384911540 -121.950958175   801.2249   5  12
2020/04/04 10:07:06.500   37.385177922 -121.951249512   811.2463   5  12
2020/04/04 10:07:07.000   37.385444302 -121.951540850   821.2679   5  12
2020/04/04 10:07:07.500   37.385710681 -121.951832190   831.2898   5  12
2020/04/04 10:07:08.000   37.385977058 -121.952123530   841.3119   5  12
2020/04/04 10:07:08.500   37.386243433 -121.952414872   851.3343   5  12
2020/04/04 10:07:09.000   37.386509807 -121.952706214   861.3569   5  12
2020/04/04 10:07:09.500   37.386776179 -121.952997558   871.3798   5  12
2020/04/04 10:07:10.000   37.387042550 -121.953288903   881.4029   5  12
2020/04/04 10:07:10.500   37.387308919 -121.953580250   891.4262   5  12
2020/04/04 10:07:11.000   37.387575287 -121.953871597   901.4498   5  12
2020/04/04 10:07:11.500   37.387841653 -121.954162946   911.4736   5  12
2020/04/04 10:07:12.000   37.388108017 -121.954454295   921.4976   5  12
2020/04/04 10:07:12.500   37.388374380 -121.954745646   931.5219   5  12
2020/04/04 10:07:13.000   37.388640741 -121.955036998   941.5465   5  12
2020/04/04 10:07:13.500   37.388907101 -121.955328351   951.5712   5  12
2020/04/04 10:07:14.000   37.389173459 -121.955619705   961.5963   5  12
2020/04/04 10:07:14.500   37.389439816 -121.955911061   971.6215   5  12
2020/04/04 10:07:15.000   37.389706171 -121.956202417   981.6470   5  12
2020/04/04 10:07:15.500   37.389972524 -121.956493775   991.6728   5  12
2020/04/04 10:07:16.000   37.390238876 -121.956785134  1001.6988   5  12
2020/04/04 10:07:16.500   37.390505227 -121.957076494  1011.7250   5  12
2020/04/04 10:07:17.000   37.390771575 -121.957367855  1021.7515   5  12
2020/04/04 10:07:17.500   37.391037923 -121.957659217  1031.7782   5  12
2020/04/04 10:07:18.000   37.391304268 -121.957950580  1041.8052   5  12
2020/04/04 10:07:18.500   37.391570612 -121.958241945  1051.8324   5  12
2020/04/04 10:07:19.000   37.391836955 -121.958533311  1061.8598   5  12
2020/04/04 10:07:19.500   37.392103296 -121.958824678  1071.8875   5  12
2020/04/04 10:07:20.000   37.392369635 -121.959116046  1081.9154   5  12
2020/04/04 10:07:20.500   37.392635973 -121.959407415  1091.9436   5  12
2020/04/04 10:07:21.000   37.392902309 -121.959698785  1101.9720   5  12
2020/04/04 10:07:21.500   37.393168644 -121.959990156  1112.0006   5  12
2020/04/04 10:07:22.000   37.393434977 -121.960281529  1122.0295   5  12
2020/04/04 10:07:22.500   37.393701308 -121.960572903  1132.0586   5  12
2020/04/04 10:07:23.000   37.393967638 -121.960864278  1142.0880   5  12
2020/04/04 10:07:23.500   37.394233966 -121.961155654  1152.1176   5  12
2020/04/04 10:07:24.000   37.394500293 -121.961447031  1162.1475   5  12
2020/04/04 10:07:24.500   37.394766618 -121.961738409  1172.1776   5  12
2020/04/04 10:07:25.000   37.395032942 -121.962029789  1182.2079   5  12
2020/04/04 10:07:25.500   37.395299264 -121.962321169  1192.2385   5  12
2020/04/04 10:07:26.000   37.395565585 -121.962612551  1202.2693   5  12
2020/04/04 10:07:26.500   37.395831904 -121.962903934  1212.3004   5  12
2020/04/04 10:07:27.000   37.396098221 -121.963195318  1222.3317   5  12
2020/04/04 10:07:27.500   37.396364537 -121.963486703  1232.3632   5  12
2020/04/04 10:07:28.000   37.396630851 -121.963778090  1242.3950   5  12
2020/04/04 10:07:28.500   37.396897164 -121.964069477  1252.4271   5  12
2020/04/04 10:07:29.000   37.397163475 -121.964360866  1262.4593   5  12
2020/04/04 10:07:29.500   37.397429784 -121.964652255  1272.4919   5  12
2020/04/04 10:07:30.000   37.397696092 -121.964943646  1282.5246   5  12
2020/04/04 10:07:30.500   37.397962398 -121.965235038  1292.5576   5  12
2020/04/04 10:07:31.000   37.398228703 -121.965526432  1302.5909   5  12
2020/04/04 10:07:31.500   37.398495006 -121.965817826  1312.6243   5  12
2020/04/04 10:07:32.000   37.398761308 -121.966109222  1322.6581   5  12
2020/04/04 10:07:32.500   37.399027608 -121.966400618  1332.6920   5  12
2020/04/04 10:07:33.000   37.399293907 -121.966692016  1342.7262   5  12
2020/04/04 10:07:33.500   37.399560204 -121.966983415  1352.7607   5  12
2020/04/04 10:07:34.000   37.399826499 -121.967274815  1362.7954   5  12
2020/04/04 10:07:34.500   37.400092793 -121.967566216  1372.8303   5  12
2020/04/04 10:07:35.000   37.400359085 -121.967857619  1382.8655   5  12
2020/04/04 10:07:35.500   37.400625376 -121.968149022  1392.9009   5  12
2020/04/04 10:07:36.000   37.400891665 -121.968440427  1402.9365   5  12
2020/04/04 10:07:36.500   37.401157952 -121.968731833  1412.9724   5  12
2020/04/04 10:07:37.000   37.401424238 -121.969023240  1423.0086   5  12
2020/04/04 10:07:37.500   37.401690523 -121.969314648  1433.0450   5  12
2020/04/04 10:07:38.000   37.401956805 -121.969606057  1443.0816   5  12
2020/04/04 10:07:38.500   37.402223087 -121.969897468  1453.1185   5  12
2020/04/04 10:07:39.000   37.402489366 -121.970188879  1463.1556   5  12
2020/04/04 10:07:39.500   37.402755644 -121.970480292  1473.1929   5  12
2020/04/04 10:07:40.000   37.403021921 -121.970771706  1483.2305   5  12
2020/04/04 10:07:40.500   37.403288196 -121.971063121  1493.2683   5  12
2020/04/04 10:07:41.000   37.403554469 -121.971354537  1503.3064   5  12
2020/04/04 10:07:41.500   37.403820741 -121.971645954  1513.3447   5  12
2020/04/04 10:07:42.000   37.404087011 -121.971937373  1523.3833   5  12
2020/04/04 10:07:42.500   37.404353280 -121.972228792  1533.4221   5  12
2020/04/04 10:07:43.000   37.404619547 -121.972520213  1543.4611   5  12
2020/04/04 10:07:43.500   37.404885813 -121.972811635  1553.5004   5  12
2020/04/04 10:07:44.000   37.405152077 -121.973103058  1563.5399   5  12
2020/04/04 10:07:44.500   37.405418339 -121.973394482  1573.5797   5  12
2020/04/04 10:07:45.000   37.405684600 -121.973685908  1583.6197   5  12
2020/04/04 10:07:45.500   37.405950859 -121.973977334  1593.6599   5  12
2020/04/04 10:07:46.000   37.406217117 -121.974268762  1603.7004   5  12
2020/04/04 10:07:46.500   37.406483373 -121.974560190  1613.7412   5  12
2020/04/04 10:07:47.000   37.406749627 -121.974851620  1623.7821   5  12
2020/04/04 10:07:47.500   37.407015880 -121.975143051  1633.8234   5  12
2020/04/04 10:07:48.000   37.407282132 -121.975434484  1643.8648   5  12
2020/04/04 10:07:48.500   37.407548382 -121.975725917  1653.9065   5  12
2020/04/04 10:07:49.000   37.407814630 -121.976017351  1663.9484   5  12
2020/04/04 10:07:49.500   37.408080876 -121.976308787  1673.9906   5  12
2020/04/04 10:07:50.000   37.408347122 -121.976600224  1684.0330   5  12
2020/04/04 10:07:50.500   37.408613365 -121.976891662  1694.0757   5  12
2020/04/04 10:07:51.000   37.408879607 -121.977183101  1704.1186   5  12
2020/04/04 10:07:51.500   37.409145847 -121.977474541  1714.1618   5  12
2020/04/04 10:07:52.000   37.409412086 -121.977765983  1724.2052   5  12
2020/04/04 10:07:52.500   37.409678324 -121.978057425  1734.2488   5  12
2020/04/04 10:07:53.000   37.409944559 -121.978348869  1744.2927   5  12
2020/04/04 10:07:53.500   37.410210793 -121.978640314  1754.3368   5  12
2020/04/04 10:07:54.000   37.410477026 -121.978931760  1764.3811   5  12
2020/04/04 10:07:54.500   37.410743257 -121.979223207  1774.4257   5  12
2020/04/04 10:07:55.000   37.411009486 -121.979514655  1784.4706   5  12
2020/04/04 10:07:55.500   37.411275714 -121.979806104  1794.5156   5  12
2020/04/04 10:07:56.000   37.411541940 -121.980097555  1804.5610   5  12
2020/04/04 10:07:56.500   37.411808165 -121.980389007  1814.6065   5  12
2020/04/04 10:07:57.000   37.412074388 -121.980680459  1824.6523   5  12
2020/04/04 10:07:57.500   37.412340610 -121.980971913  1834.6984   5  12
2020/04/04 10:07:58.000   37.412606830 -121.981263368  1844.7447   5  12
2020/04/04 10:07:58.500   37.412873048 -121.981554825  1854.7912   5  12
2020/04/04 10:07:59.000   37.413139265 -121.981846282  1864.8380   5  12
2020/04/04 10:07:59.500   37.413405480 -121.982137741  1874.8850   5  12
2020/04/04 10:08:00.000   37.413671694 -121.982429200  1884.9322   5  12
2020/04/04 10:08:00.500   37.413937906 -121.982720661  1894.9797   5  12
2020/04/04 10:08:01.000   37.414204116 -121.983012123  1905.0275   5  12
2020/04/04 10:08:01.500   37.414470325 -121.983303587  1915.0755   5  12
2020/04/04 10:08:02.000   37.414736533 -121.983595051  1925.1237   5  12
2020/04/04 10:08:02.500   37.415002739 -121.983886516  1935.1721   5  12
2020/04/04 10:08:03.000   37.415268943 -121.984177983  1945.2208   5  12
2020/04/04 10:08:03.500   37.415535146 -121.984469451  1955.2698   5  12
2020/04/04 10:08:04.000   37.415801347 -121.984760919  1965.3190   5  12
2020/04/04 10:08:04.500   37.416067546 -121.985052390  1975.3684   5  12
2020/04/04 10:08:05.000   37.416333744 -121.985343861  1985.4181   5  12
2020/04/04 10:08:05.500   37.416599941 -121.985635333  1995.4680   5  12
2020/04/04 10:08:06.000   37.416866135 -121.985926806  2005.5182   5  12
2020/04/04 10:08:06.500   37.417132329 -121.986218281  2015.5685   5  12
2020/04/04 10:08:07.000   37.417398520 -121.986509757  2025.6192   5  12
2020/04/04 10:08:07.500   37.417664710 -121.986801234  2035.6701   5  12
2020/04/04 10:08:08.000   37.417930899 -121.987092712  2045.7212   5  12
2020/04/04 10:08:08.500   37.418197086 -121.987384191  2055.7725   5  12
2020/04/04 10:08:09.000   37.418463271 -121.987675671  2065.8241   5  12
2020/04/04 10:08:09.500   37.418729455 -121.987967153  2075.8760   5  12
2020/04/04 10:08:10.000   37.418995637 -121.988258636  2085.9281   5  12
2020/04/04 10:08:10.500   37.419261818 -121.988550119  2095.9804   5  12
2020/04/04 10:08:11.000   37.419527997 -121.988841604  2106.0330   5  12
2020/04/04 10:08:11.500   37.419794175 -121.989133090  2116.0858   5  12
2020/04/04 10:08:12.000   37.420060351 -121.989424578  2126.1388   5  12
2020/04/04 10:08:12.500   37.420326525 -121.989716066  2136.0631   5  12
2020/04/04 10:08:13.000   37.420592698 -121.990007555  2145.7377   5  12
2020/04/04 10:08:13.500   37.420858869 -121.990299046  2155.1625   5  12
2020/04/04 10:08:14.000   37.421125039 -121.990590538  2164.3376   5  12
2020/04/04 10:08:14.500   37.421391208 -121.990882032  2173.2629   5  12
2020/04/04 10:08:15.000   37.421657375 -121.991173526  2181.9384   5  12
2020/04/04 10:08:15.500   37.421923540 -121.991465022  2190.3642   5  12
2020/04/04 10:08:16.000   37.422189704 -121.991756520  2198.5402   5  12
2020/04/04 10:08:16.500   37.422455867 -121.992048018  2206.4665   5  12
2020/04/04 10:08:17.000   37.422722029 -121.992339519  2214.1430   5  12
2020/04/04 10:08:17.500   37.422988189 -121.992631020  2221.5697   5  12
2020/04/04 10:08:18.000   37.423254349 -121.992922523  2228.7467   5  12
2020/04/04 10:08:18.500   37.423520507 -121.993214028  2235.6739   5  12
2020/04/04 10:08:19.000   37.423786663 -121.993505535  2242.3514   5  12
2020/04/04 10:08:19.500   37.424052819 -121.993797043  2248.7791   5  12
2020/04/04 10:08:20.000   37.424318974 -121.994088552  2254.9571   5  12
2020/04/04 10:08:20.500   37.424585127 -121.994380064  2260.8853   5  12
2020/04/04 10:08:21.000   37.424851280 -121.994671577  2266.5637   5  12
2020/04/04 10:08:21.500   37.425117431 -121.994963092  2271.9924   5  12
2020/04/04 10:08:22.000   37.425383582 -121.995254608  2277.1713   5  12
2020/04/04 10:08:22.500   37.425649731 -121.995546127  2282.1004   5  12
2020/04/04 10:08:23.000   37.425915880 -121.995837647  2286.7798   5  12
2020/04/04 10:08:23.500   37.426182028 -121.996129169  2291.2095   5  12
2020/04/04 10:08:24.000   37.426448174 -121.996420694  2295.3894   5  12
2020/04/04 10:08:24.500   37.426714321 -121.996712220  2299.3195   5  12
2020/04/04 10:08:25.000   37.426980466 -121.997003748  2302.9999   5  12
2020/04/04 10:08:25.500   37.427246610 -121.997295278  2306.4305   5  12
2020/04/04 10:08:26.000   37.427512754 -121.997586810  2309.6113   5  12
2020/04/04 10:08:26.500   37.427778897 -121.997878345  2312.5424   5  12
2020/04/04 10:08:27.000   37.428045040 -121.998169881  2315.2238   5  12
2020/04/04 10:08:27.500   37.428311182 -121.998461420  2317.6553   5  12
2020/04/04 10:08:28.000   37.428577323 -121.998752961  2319.8371   5  12
2020/04/04 10:08:28.500   37.428843463 -121.999044504  2321.7692   5  12
2020/04/04 10:08:29.000   37.429109604 -121.999336049  2323.4515   5  12
2020/04/04 10:08:29.500   37.429375743 -121.999627597  2324.8840   5  12
2020/04/04 10:08:30.000   37.429641882 -121.999919147  2326.0668   5  12
2020/04/04 10:08:30.500   37.429908021 -122.000210700  2326.9999   5  12
2020/04/04 10:08:31.000   37.430174159 -122.000502254  2327.6831   5  12
2020/04/04 10:08:31.500   37.430440297 -122.000793812  2328.1166   5  12
2020/04/04 10:08:32.000   37.430706435 -122.001085372  2328.3004   5  12
2020/04/04 10:08:32.500   37.430972572 -122.001376934  2328.3150   5  12
2020/04/04 10:08:33.000   37.431238708 -122.001668498  2328.3250   5  12
2020/04/04 10:08:33.500   37.431504844 -122.001960064  2328.3353   5  12
2020/04/04 10:08:34.000   37.431770979 -122.002251633  2328.3458   5  12
2020/04/04 10:08:34.500   37.432037113 -122.002543203  2328.3566   5  12
2020/04/04 10:08:35.000   37.432303246 -122.002834775  2328.3676   5  12
2020/04/04 10:08:35.500   37.432569379 -122.003126350  2328.3788   5  12
2020/04/04 10:08:36.000   37.432835511 -122.003417927  2328.3903   5  12
2020/04/04 10:08:36.500   37.433101642 -122.003709505  2328.4020   5  12
2020/04/04 10:08:37.000   37.433367773 -122.004001086  2328.4140   5  12
2020/04/04 10:08:37.500   37.433633903 -122.004292669  2328.4262   5  12
2020/04/04 10:08:38.000   37.433900032 -122.004584254  2328.4386   5  12
2020/04/04 10:08:38.500   37.434166160 -122.004875841  2328.4513   5  12
2020/04/04 10:08:39.000   37.434432288 -122.005167430  2328.4642   5  12
2020/04/04 10:08:39.500   37.434698415 -122.005459021  2328.4774   5  12
2020/04/04 10:08:40.000   37.434964541 -122.005750614  2328.4908   5  12
2020/04/04 10:08:40.500   37.435230666 -122.006042209  2328.5045   5  12
2020/04/04 10:08:41.000   37.435496791 -122.006333806  2328.5183   5  12
2020/04/04 10:08:41.500   37.435762915 -122.006625405  2328.5325   5  12
2020/04/04 10:08:42.000   37.436029038 -122.006917007  2328.5469   5  12
2020/04/04 10:08:42.500   37.436295160 -122.007208610  2328.5615   5  12
2020/04/04 10:08:43.000   37.436561282 -122.007500216  2328.5763   5  12
2020/04/04 10:08:43.500   37.436827403 -122.007791823  2328.5914   5  12
2020/04/04 10:08:44.000   37.437093523 -122.008083433  2328.6068   5  12
2020/04/04 10:08:44.500   37.437359643 -122.008375045  2328.6224   5  12
2020/04/04 10:08:45.000   37.437625762 -122.008666658  2328.6382   5  12
2020/04/04 10:08:45.500   37.437891880 -122.008958274  2328.6543   5  12
2020/04/04 10:08:46.000   37.438157997 -122.009249892  2328.6706   5  12
2020/04/04 10:08:46.500   37.438424114 -122.009541512  2328.6871   5  12
2020/04/04 10:08:47.000   37.438690230 -122.009833134  2328.7039   5  12
2020/04/04 10:08:47.500   37.438956345 -122.010124758  2328.7209   5  12
2020/04/04 10:08:48.000   37.439222459 -122.010416384  2328.7382   5  12
2020/04/04 10:08:48.500   37.439488573 -122.010708012  2328.7557   5  12
2020/04/04 10:08:49.000   37.439754686 -122.010999643  2328.7735   5  12
2020/04/04 10:08:49.500   37.440020798 -122.011291275  2328.7915   5  12
2020/04/04 10:08:50.000   37.440286909 -122.011582909  2328.8097   5  12
2020/04/04 10:08:50.500   37.440553020 -122.011874546  2328.8282   5  12
2020/04/04 10:08:51.000   37.440819130 -122.012166184  2328.8470   5  12
2020/04/04 10:08:51.500   37.441085239 -122.012457825  2328.8659   5  12
2020/04/04 10:08:52.000   37.441351348 -122.012749467  2328.8851   5  12
2020/04/04 10:08:52.500   37.441617456 -122.013041112  2328.9046   5  12
2020/04/04 10:08:53.000   37.441883563 -122.013332759  2328.9243   5  12
2020/04/04 10:08:53.500   37.442149669 -122.013624408  2328.9442   5  12
2020/04/04 10:08:54.000   37.442415775 -122.013916059  2328.9644   5  12
2020/04/04 10:08:54.500   37.442681880 -122.014207712  2328.9848   5  12
2020/04/04 10:08:55.000   37.442947984 -122.014499367  2329.0054   5  12
2020/04/04 10:08:55.500   37.443214087 -122.014791024  2329.0263   5  12
2020/04/04 10:08:56.000   37.443480190 -122.015082683  2329.0475   5  12
2020/04/04 10:08:56.500   37.443746292 -122.015374344  2329.0689   5  12
2020/04/04 10:08:57.000   37.444012393 -122.015666007  2329.0905   5  12
2020/04/04 10:08:57.500   37.444278493 -122.015957673  2329.1124   5  12
2020/04/04 10:08:58.000   37.444544593 -122.016249340  2329.1345   5  12
2020/04/04 10:08:58.500   37.444810692 -122.016541009  2329.1568   5  12
2020/04/04 10:08:59.000   37.445076790 -122.016832681  2329.1794   5  12
2020/04/04 10:08:59.500   37.445342888 -122.017124355  2329.2022   5  12
2020/04/04 10:09:00.000   37.445608985 -122.017416030  2329.2253   5  12
2020/04/04 10:09:00.500   37.445875081 -122.017707708  2329.2486   5  12
2020/04/04 10:09:01.000   37.446141176 -122.017999388  2329.2722   5  12
2020/04/04 10:09:01.500   37.446407271 -122.018291070  2329.2960   5  12
2020/04/04 10:09:02.000   37.446673365 -122.018582754  2329.3200   5  12
2020/04/04 10:09:02.500   37.446940410 -122.018873064  2329.3443   5  12
2020/04/04 10:09:03.000   37.447210326 -122.019159167  2329.3688   5  12
2020/04/04 10:09:03.500   37.447483126 -122.019440936  2329.3936   5  12
2020/04/04 10:09:04.000   37.447758765 -122.019718323  2329.4186   5  12
2020/04/04 10:09:04.500   37.448037200 -122.019991285  2329.4438   5  12
2020/04/04 10:09:05.000   37.448318385 -122.020259776  2329.4693   5  12
2020/04/04 10:09:05.500   37.448602274 -122.020523753  2329.4951   5  12
2020/04/04 10:09:06.000   37.448888822 -122.020783173  2329.5210   5  12
2020/04/04 10:09:06.500   37.449177981 -122.021037994  2329.5472   5  12
2020/04/04 10:09:07.000   37.449469705 -122.021288174  2329.5737   5  12
2020/04/04 10:09:07.500   37.449763947 -122.021533674  2329.6004   5  12
2020/04/04 10:09:08.000   37.450060658 -122.021774452  2329.6273   5  12
2020/04/04 10:09:08.500   37.450359791 -122.022010471  2329.6545   5  12
2020/04/04 10:09:09.000   37.450661297 -122.022241691  2329.6819   5  12
2020/04/04 10:09:09.500   37.450965126 -122.022468074  2329.7095   5  12
2020/04/04 10:09:10.000   37.451271231 -122.022689585  2329.7374   5  12
2020/04/04 10:09:10.500   37.451579561 -122.022906187  2329.7655   5  12
2020/04/04 10:09:11.000   37.451890066 -122.023117845  2329.7939   5  12
2020/04/04 10:09:11.500   37.452202695 -122.023324524  2329.8225   5  12
2020/04/04 10:09:12.000   37.452517399 -122.023526192  2329.8513   5  12
2020/04/04 10:09:12.500   37.452834125 -122.023722814  2329.8804   5  12
2020/04/04 10:09:13.000   37.453152823 -122.023914359  2329.9097   5  12
2020/04/04 10:09:13.500   37.453473440 -122.024100797  2329.9392   5  12
2020/04/04 10:09:14.000   37.453795925 -122.024282095  2329.9690   5  12
2020/04/04 10:09:14.500   37.454120226 -122.024458227  2329.9989   5  12
2020/04/04 10:09:15.000   37.454446289 -122.024629161  2330.0292   5  12
2020/04/04 10:09:15.500   37.454774062 -122.024794871  2330.0596   5  12
2020/04/04 10:09:16.000   37.455103491 -122.024955330  2330.0903   5  12
2020/04/04 10:09:16.500   37.455434523 -122.025110511  2330.1212   5  12
2020/04/04 10:09:17.000   37.455767105 -122.025260390  2330.1523   5  12
2020/04/04 10:09:17.500   37.456101182 -122.025404942  2330.1837   5  12
2020/04/04 10:09:18.000   37.456436701 -122.025544143  2330.2153   5  12
2020/04/04 10:09:18.500   37.456773606 -122.025677970  2330.2471   5  12
2020/04/04 10:09:19.000   37.457111842 -122.025806403  2330.2791   5  12
2020/04/04 10:09:19.500   37.457451356 -122.025929419  2330.3113   5  12
2020/04/04 10:09:20.000   37.457792092 -122.026047000  2330.3438   5  12
2020/04/04 10:09:20.500   37.458133995 -122.026159125  2330.3765   5  12
2020/04/04 10:09:21.000   37.458477008 -122.026265777  2330.4094   5  12
2020/04/04 10:09:21.500   37.458821077 -122.026366938  2330.4425   5  12
2020/04/04 10:09:22.000   37.459166146 -122.026462591  2330.4758   5  12
2020/04/04 10:09:22.500   37.459512158 -122.026552722  2330.5093   5  12
2020/04/04 10:09:23.000   37.459859058 -122.026637315  2330.5431   5  12
2020/04/04 10:09:23.500   37.460206788 -122.026716356  2330.5770   5  12
2020/04/04 10:09:24.000   37.460555293 -122.026789833  2330.6112   5  12
2020/04/04 10:09:24.500   37.460904517 -122.026857733  2330.6456   5  12
2020/04/04 10:09:25.000   37.461254401 -122.026920046  2330.6801   5  12
2020/04/04 10:09:25.500   37.461604890 -122.026976761  2330.7149   5  12
2020/04/04 10:09:26.000   37.461955927 -122.027027869  2330.7499   5  12
2020/04/04 10:09:26.500   37.462307454 -122.027073362  2330.7850   5  12
2020/04/04 10:09:27.000   37.462659415 -122.027113232  2330.8204   5  12
2020/04/04 10:09:27.500   37.463011752 -122.027147472  2330.8560   5  12
2020/04/04 10:09:28.000   37.463364408 -122.027176078  2330.8917   5  12
2020/04/04 10:09:28.500   37.463717326 -122.027199043  2330.9277   5  12
2020/04/04 10:09:29.000   37.464070449 -122.027216365  2330.9638   5  12
2020/04/04 10:09:29.500   37.464423719 -122.027228041  2331.0001   5  12
2020/04/04 10:09:30.000   37.464777079 -122.027234068  2331.0367   5  12
2020/04/04 10:09:30.500   37.465130471 -122.027234446  2331.0733   5  12
2020/04/04 10:09:31.000   37.465483839 -122.027229174  2331.1102   5  12
2020/04/04 10:09:31.500   37.465837124 -122.027218253  2331.1473   5  12
2020/04/04 10:09:32.000   37.466190269 -122.027201685  2331.1845   5  12
2020/04/04 10:09:32.500   37.466543218 -122.027179472  2331.2219   5  12
2020/04/04 10:09:33.000   37.466895912 -122.027151618  2331.2595   5  12
2020/04/04 10:09:33.500   37.467248295 -122.027118128  2331.2973   5  12
2020/04/04 10:09:34.000   37.467600309 -122.027079007  2331.3352   5  12
2020/04/04 10:09:34.500   37.467951897 -122.027034260  2331.3733   5  12
2020/04/04 10:09:35.000   37.468303002 -122.026983896  2331.4115   5  12
2020/04/04 10:09:35.500   37.468653567 -122.026927922  2331.4499   5  12
2020/04/04 10:09:36.000   37.469003534 -122.026866347  2331.4885   5  12
2020/04/04 10:09:36.500   37.469352848 -122.026799182  2331.5272   5  12
2020/04/04 10:09:37.000   37.469701451 -122.026726437  2331.5661   5  12
2020/04/04 10:09:37.500   37.470049287 -122.026648123  2331.6052   5  12
2020/04/04 10:09:38.000   37.470396300 -122.026564254  2331.6443   5  12
2020/04/04 10:09:38.500   37.470742432 -122.026474843  2331.6837   5  12
2020/04/04 10:09:39.000   37.471087628 -122.026379905  2331.7232   5  12
2020/04/04 10:09:39.500   37.471431831 -122.026279454  2331.7628   5  12
2020/04/04 10:09:40.000   37.471774986 -122.026173508  2331.8026   5  12
2020/04/04 10:09:40.500   37.472117038 -122.026062082  2331.8425   5  12
2020/04/04 10:09:41.000   37.472457929 -122.025945196  2331.8825   5  12
2020/04/04 10:09:41.500   37.472797606 -122.025822868  2331.9227   5  12
2020/04/04 10:09:42.000   37.473136012 -122.025695118  2331.9630   5  12
2020/04/04 10:09:42.500   37.473473094 -122.025561966  2332.0034   5  12
2020/04/04 10:09:43.000   37.473808795 -122.025423435  2332.0439   5  12
2020/04/04 10:09:43.500   37.474143063 -122.025279546  2332.0846   5  12
2020/04/04 10:09:44.000   37.474475841 -122.025130323  2332.1254   5  12
2020/04/04 10:09:44.500   37.474807077 -122.024975790  2332.1663   5  12
2020/04/04 10:09:45.000   37.475136716 -122.024815972  2332.2073   5  12
2020/04/04 10:09:45.500   37.475464705 -122.024650895  2332.2485   5  12
2020/04/04 10:09:46.000   37.475790990 -122.024480586  2332.2897   5  12
2020/04/04 10:09:46.500   37.476115520 -122.024305072  2332.3311   5  12
2020/04/04 10:09:47.000   37.476438240 -122.024124382  2332.3725   5  12
2020/04/04 10:09:47.500   37.476759098 -122.023938545  2332.4141   5  12
2020/04/04 10:09:48.000   37.477078043 -122.023747591  2332.4557   5  12
2020/04/04 10:09:48.500   37.477395023 -122.023551552  2332.4975   5  12
2020/04/04 10:09:49.000   37.477709985 -122.023350458  2332.5393   5  12
2020/04/04 10:09:49.500   37.478022879 -122.023144343  2332.5812   5  12
2020/04/04 10:09:50.000   37.478333654 -122.022933240  2332.6233   5  12
2020/04/04 10:09:50.500   37.478642260 -122.022717183  2332.6653   5  12
2020/04/04 10:09:51.000   37.478948646 -122.022496207  2332.7075   5  12
2020/04/04 10:09:51.500   37.479252763 -122.022270349  2332.7498   5  12
2020/04/04 10:09:52.000   37.479554560 -122.022039644  2332.7921   5  12
2020/04/04 10:09:52.500   37.479853990 -122.021804130  2332.8345   5  12
2020/04/04 10:09:53.000   37.480151004 -122.021563846  2332.8770   5  12
2020/04/04 10:09:53.500   37.480445552 -122.021318830  2332.9195   5  12
2020/04/04 10:09:54.000   37.480737588 -122.021069122  2332.9621   5  12
2020/04/04 10:09:54.500   37.481027064 -122.020814763  2333.0047   5  12
2020/04/04 10:09:55.000   37.481313933 -122.020555794  2333.0474   5  12
2020/04/04 10:09:55.500   37.481598148 -122.020292256  2333.0902   5  12
2020/04/04 10:09:56.000   37.481879663 -122.020024194  2333.1330   5  12
2020/04/04 10:09:56.500   37.482158432 -122.019751649  2333.1759   5  12
2020/04/04 10:09:57.000   37.482434411 -122.019474668  2333.2188   5  12
2020/04/04 10:09:57.500   37.482707553 -122.019193293  2333.2617   5  12
2020/04/04 10:09:58.000   37.482977816 -122.018907572  2333.3047   5  12
2020/04/04 10:09:58.500   37.483245154 -122.018617550  2333.3477   5  12
2020/04/04 10:09:59.000   37.483509525 -122.018323274  2333.3907   5  12
2020/04/04 10:09:59.500   37.483770885 -122.018024793  2333.4338   5  12
2020/04/04 10:10:00.000   37.484029192 -122.017722155  2333.4769   5  12
2020/04/04 10:10:00.500   37.484284404 -122.017415409  2333.5200   5  12
2020/04/04 10:10:01.000   37.484536480 -122.017104604  2333.5632   5  12
2020/04/04 10:10:01.500   37.484785378 -122.016789792  2333.6063   5  12
2020/04/04 10:10:02.000   37.485031059 -122.016471023  2333.6495   5  12
2020/04/04 10:10:02.500   37.485273481 -122.016148350  2333.6927   5  12
2020/04/04 10:10:03.000   37.485512607 -122.015821823  2333.7359   5  12
2020/04/04 10:10:03.500   37.485748396 -122.015491498  2333.7791   5  12
2020/04/04 10:10:04.000   37.485980811 -122.015157426  2333.8223   5  12
2020/04/04 10:10:04.500   37.486209814 -122.014819663  2333.8654   5  12
2020/04/04 10:10:05.000   37.486435367 -122.014478263  2333.9086   5  12
2020/04/04 10:10:05.500   37.486657435 -122.014133282  2333.9518   5  12
2020/04/04 10:10:06.000   37.486875980 -122.013784776  2333.9950   5  12
2020/04/04 10:10:06.500   37.487090967 -122.013432802  2334.0381   5  12
2020/04/04 10:10:07.000   37.487302363 -122.013077415  2334.0813   5  12
2020/04/04 10:10:07.500   37.487510131 -122.012718676  2334.1244   5  12
2020/04/04 10:10:08.000   37.487714238 -122.012356641  2334.1675   5  12
2020/04/04 10:10:08.500   37.487914652 -122.011991369  2334.2105   5  12
2020/04/04 10:10:09.000   37.488111339 -122.011622920  2334.2535   5  12
2020/04/04 10:10:09.500   37.488304267 -122.011251354  2334.2965   5  12
2020/04/04 10:10:10.000   37.488493406 -122.010876730  2334.3395   5  12
2020/04/04 10:10:10.500   37.488678725 -122.010499111  2334.3824   5  12
2020/04/04 10:10:11.000   37.488860192 -122.010118557  2334.4253   5  12
2020/04/04 10:10:11.500   37.489037780 -122.009735130  2334.4681   5  12
2020/04/04 10:10:12.000   37.489211458 -122.009348892  2334.5109   5  12
2020/04/04 10:10:12.500   37.489381200 -122.008959906  2334.5537   5  12
2020/04/04 10:10:13.000   37.489546976 -122.008568236  2334.5963   5  12
2020/04/04 10:10:13.500   37.489708761 -122.008173945  2334.6390   5  12
2020/04/04 10:10:14.000   37.489866527 -122.007777097  2334.6815   5  12
2020/04/04 10:10:14.500   37.490020250 -122.007377756  2334.7240   5  12
2020/04/04 10:10:15.000   37.490169904 -122.006975988  2334.7664   5  12
2020/04/04 10:10:15.500   37.490315466 -122.006571858  2334.8088   5  12
2020/04/04 10:10:16.000   37.490456910 -122.006165431  2334.8511   5  12
2020/04/04 10:10:16.500   37.490594215 -122.005756773  2334.8933   5  12
2020/04/04 10:10:17.000   37.490727358 -122.005345952  2334.9354   5  12
2020/04/04 10:10:17.500   37.490856317 -122.004933033  2334.9775   5  12
2020/04/04 10:10:18.000   37.490981071 -122.004518084  2335.0195   5  12
2020/04/04 10:10:18.500   37.491101601 -122.004101172  2335.0613   5  12
2020/04/04 10:10:19.000   37.491217886 -122.003682365  2335.1031   5  12
2020/04/04 10:10:19.500   37.491329908 -122.003261732  2335.1448   5  12
2020/04/04 10:10:20.000   37.491437648 -122.002839339  2335.1864   5  12
2020/04/04 10:10:20.500   37.491541089 -122.002415257  2335.2279   5  12
2020/04/04 10:10:21.000   37.491640214 -122.001989554  2335.2694   5  12
2020/04/04 10:10:21.500   37.491735007 -122.001562299  2335.3106   5  12
2020/04/04 10:10:22.000   37.491825453 -122.001133561  2335.3518   5  12
2020/04/04 10:10:22.500   37.491911536 -122.000703411  2335.3929   5  12
2020/04/04 10:10:23.000   37.491993243 -122.000271919  2335.4339   5  12
2020/04/04 10:10:23.500   37.492070561 -121.999839153  2335.4747   5  12
2020/04/04 10:10:24.000   37.492143477 -121.999405186  2335.5155   5  12
2020/04/04 10:10:24.500   37.492211979 -121.998970087  2335.5561   5  12
2020/04/04 10:10:25.000   37.492276056 -121.998533926  2335.5966   5  12
2020/04/04 10:10:25.500   37.492335698 -121.998096776  2335.6370   5  12
2020/04/04 10:10:26.000   37.492390895 -121.997658707  2335.6772   5  12
2020/04/04 10:10:26.500   37.492441637 -121.997219790  2335.7173   5  12
2020/04/04 10:10:27.000   37.492487917 -121.996780097  2335.7573   5  12
2020/04/04 10:10:27.500   37.492529728 -121.996339698  2335.7971   5  12
2020/04/04 10:10:28.000   37.492567061 -121.995898667  2335.8368   5  12
2020/04/04 10:10:28.500   37.492599912 -121.995457073  2335.8764   5  12
2020/04/04 10:10:29.000   37.492628275 -121.995014990  2335.9158   5  12
2020/04/04 10:10:29.500   37.492652146 -121.994572489  2335.9551   5  12
2020/04/04 10:10:30.000   37.492671519 -121.994129642  2335.9942   5  12
2020/04/04 10:10:30.500   37.492686393 -121.993686520  2336.0331   5  12
2020/04/04 10:10:31.000   37.492696765 -121.993243197  2336.0720   5  12
2020/04/04 10:10:31.500   37.492702633 -121.992799744  2336.1106   5  12
2020/04/04 10:10:32.000   37.492703997 -121.992356233  2336.1491   5  12
2020/04/04 10:10:32.500   37.492700855 -121.991912736  2336.1874   5  12
2020/04/04 10:10:33.000   37.492693209 -121.991469325  2336.2256   5  12
2020/04/04 10:10:33.500   37.492681060 -121.991026073  2336.2636   5  12
2020/04/04 10:10:34.000   37.492664409 -121.990583051  2336.3015   5  12
2020/04/04 10:10:34.500   37.492643260 -121.990140332  2336.3391   5  12
2020/04/04 10:10:35.000   37.492617616 -121.989697987  2336.3766   5  12
2020/04/04 10:10:35.500   37.492587481 -121.989256089  2336.4140   5  12
2020/04/04 10:10:36.000   37.492552860 -121.988814708  2336.4511   5  12
2020/04/04 10:10:36.500   37.492513759 -121.988373918  2336.4881   5  12
2020/04/04 10:10:37.000   37.492470183 -121.987933790  2336.5249   5  12
2020/04/04 10:10:37.500   37.492422141 -121.987494394  2336.5615   5  12
2020/04/04 10:10:38.000   37.492369639 -121.987055803  2336.5979   5  12
2020/04/04 10:10:38.500   37.492312687 -121.986618088  2336.6342   5  12
2020/04/04 10:10:39.000   37.492251293 -121.986181321  2336.6702   5  12
2020/04/04 10:10:39.500   37.492185468 -121.985745571  2336.7061   5  12
2020/04/04 10:10:40.000   37.492115223 -121.985310910  2336.7417   5  12
2020/04/04 10:10:40.500   37.492040568 -121.984877408  2336.7772   5  12
2020/04/04 10:10:41.000   37.491961516 -121.984445137  2336.8125   5  12
2020/04/04 10:10:41.500   37.491878080 -121.984014166  2336.8476   5  12
2020/04/04 10:10:42.000   37.491790273 -121.983584565  2336.8825   5  12
2020/04/04 10:10:42.500   37.491698109 -121.983156405  2336.9171   5  12
2020/04/04 10:10:43.000   37.491601604 -121.982729754  2336.9516   5  12
2020/04/04 10:10:43.500   37.491500774 -121.982304682  2336.9859   5  12
2020/04/04 10:10:44.000   37.491395634 -121.981881259  2337.0200   5  12
2020/04/04 10:10:44.500   37.491286202 -121.981459553  2337.0538   5  12
2020/04/04 10:10:45.000   37.491172495 -121.981039632  2337.0875   5  12
2020/04/04 10:10:45.500   37.491054532 -121.980621565  2337.1209   5  12
2020/04/04 10:10:46.000   37.490932332 -121.980205420  2337.1541   5  12
2020/04/04 10:10:46.500   37.490805916 -121.979791264  2337.1871   5  12
2020/04/04 10:10:47.000   37.490675303 -121.979379165  2337.2199   5  12
2020/04/04 10:10:47.500   37.490540515 -121.978969190  2337.2525   5  12
2020/04/04 10:10:48.000   37.490401573 -121.978561405  2337.2849   5  12
2020/04/04 10:10:48.500   37.490258501 -121.978155877  2337.3170   5  12
2020/04/04 10:10:49.000   37.490111322 -121.977752671  2337.3490   5  12
2020/04/04 10:10:49.500   37.489960059 -121.977351853  2337.3807   5  12
2020/04/04 10:10:50.000   37.489804737 -121.976953489  2337.4121   5  12
2020/04/04 10:10:50.500   37.489645381 -121.976557642  2337.4434   5  12
2020/04/04 10:10:51.000   37.489482018 -121.976164378  2337.4744   5  12
2020/04/04 10:10:51.500   37.489314673 -121.975773760  2337.5052   5  12
2020/04/04 10:10:52.000   37.489143374 -121.975385852  2337.5358   5  12
2020/04/04 10:10:52.500   37.488968150 -121.975000716  2337.5662   5  12
2020/04/04 10:10:53.000   37.488789027 -121.974618415  2337.5963   5  12
2020/04/04 10:10:53.500   37.488606036 -121.974239012  2337.6262   5  12
2020/04/04 10:10:54.000   37.488419206 -121.973862568  2337.6558   5  12
2020/04/04 10:10:54.500   37.488228568 -121.973489144  2337.6853   5  12
2020/04/04 10:10:55.000   37.488034152 -121.973118802  2337.7145   5  12
2020/04/04 10:10:55.500   37.487835990 -121.972751600  2337.7434   5  12
2020/04/04 10:10:56.000   37.487634115 -121.972387598  2337.7722   5  12
2020/04/04 10:10:56.500   37.487428559 -121.972026857  2337.8006   5  12
2020/04/04 10:10:57.000   37.487219355 -121.971669434  2337.8289   5  12
2020/04/04 10:10:57.500   37.487006538 -121.971315388  2337.8569   5  12
2020/04/04 10:10:58.000   37.486790142 -121.970964775  2337.8847   5  12
2020/04/04 10:10:58.500   37.486570202 -121.970617654  2337.9122   5  12
2020/04/04 10:10:59.000   37.486346754 -121.970274080  2337.9396   5  12
2020/04/04 10:10:59.500   37.486119835 -121.969934109  2337.9666   5  12
2020/04/04 10:11:00.000   37.485889481 -121.969597797  2337.9935   5  12
2020/04/04 10:11:00.500   37.485655730 -121.969265197  2338.0200   5  12
2020/04/04 10:11:01.000   37.485418619 -121.968936365  2338.0464   5  12
2020/04/04 10:11:01.500   37.485178188 -121.968611353  2338.0725   5  12
2020/04/04 10:11:02.000   37.484934475 -121.968290214  2338.0984   5  12
2020/04/04 10:11:02.500   37.484687520 -121.967973001  2338.1240   5  12
2020/04/04 10:11:03.000   37.484437362 -121.967659765  2338.1494   5  12
2020/04/04 10:11:03.500   37.484184044 -121.967350556  2338.1745   5  12
2020/04/04 10:11:04.000   37.483927605 -121.967045425  2338.1995   5  12
2020/04/04 10:11:04.500   37.483668088 -121.966744422  2338.2241   5  12
2020/04/04 10:11:05.000   37.483405535 -121.966447595  2338.2485   5  12
2020/04/04 10:11:05.500   37.483139988 -121.966154993  2338.2727   5  12
2020/04/04 10:11:06.000   37.482871490 -121.965866663  2338.2967   5  12
2020/04/04 10:11:06.500   37.482600086 -121.965582652  2338.3204   5  12
2020/04/04 10:11:07.000   37.482325819 -121.965303006  2338.3438   5  12
2020/04/04 10:11:07.500   37.482048734 -121.965027770  2338.3670   5  12
2020/04/04 10:11:08.000   37.481768875 -121.964756990  2338.3900   5  12
2020/04/04 10:11:08.500   37.481486289 -121.964490708  2338.4128   5  12
2020/04/04 10:11:09.000   37.481201022 -121.964228969  2338.4353   5  12
2020/04/04 10:11:09.500   37.480913118 -121.963971814  2338.4575   5  12
2020/04/04 10:11:10.000   37.480622627 -121.963719286  2338.4795   5  12
2020/04/04 10:11:10.500   37.480329593 -121.963471425  2338.5013   5  12
2020/04/04 10:11:11.000   37.480034066 -121.963228272  2338.5228   5  12
2020/04/04 10:11:11.500   37.479736094 -121.962989866  2338.5441   5  12
2020/04/04 10:11:12.000   37.479435723 -121.962756246  2338.5652   5  12
2020/04/04 10:11:12.500   37.479133005 -121.962527449  2338.5860   5  12
2020/04/04 10:11:13.000   37.478827987 -121.962303514  2338.6066   5  12
2020/04/04 10:11:13.500   37.478520719 -121.962084475  2338.6270   5  12
2020/04/04 10:11:14.000   37.478211251 -121.961870370  2338.6471   5  12
2020/04/04 10:11:14.500   37.477899634 -121.961661231  2338.6670   5  12
2020/04/04 10:11:15.000   37.477585917 -121.961457094  2338.6866   5  12
2020/04/04 10:11:15.500   37.477270153 -121.961257991  2338.7060   5  12
2020/04/04 10:11:16.000   37.476952392 -121.961063955  2338.7252   5  12
2020/04/04 10:11:16.500   37.476632686 -121.960875017  2338.7442   5  12
2020/04/04 10:11:17.000   37.476311086 -121.960691208  2338.7629   5  12
2020/04/04 10:11:17.500   37.475987646 -121.960512558  2338.7814   5  12
2020/04/04 10:11:18.000   37.475662418 -121.960339095  2338.7996   5  12
2020/04/04 10:11:18.500   37.475335453 -121.960170848  2338.8177   5  12
2020/04/04 10:11:19.000   37.475006807 -121.960007843  2338.8355   5  12
2020/04/04 10:11:19.500   37.474676532 -121.959850108  2338.8530   5  12
2020/04/04 10:11:20.000   37.474344681 -121.959697668  2338.8704   5  12
2020/04/04 10:11:20.500   37.474011308 -121.959550548  2338.8875   5  12
2020/04/04 10:11:21.000   37.473676469 -121.959408770  2338.9044   5  12
2020/04/04 10:11:21.500   37.473340216 -121.959272360  2338.9211   5  12
2020/04/04 10:11:22.000   37.473002606 -121.959141337  2338.9376   5  12
2020/04/04 10:11:22.500   37.472663692 -121.959015725  2338.9538   5  12
2020/04/04 10:11:23.000   37.472323529 -121.958895542  2338.9698   5  12
2020/04/04 10:11:23.500   37.471982173 -121.958780809  2338.9857   5  12
2020/04/04 10:11:24.000   37.471639680 -121.958671543  2339.0013   5  12
2020/04/04 10:11:24.500   37.471296105 -121.958567764  2339.0166   5  12
2020/04/04 10:11:25.000   37.470951503 -121.958469487  2339.0318   5  12
2020/04/04 10:11:25.500   37.470605931 -121.958376728  2339.0468   5  12
2020/04/04 10:11:26.000   37.470259445 -121.958289503  2339.0615   5  12
2020/04/04 10:11:26.500   37.469912102 -121.958207825  2339.0761   5  12
2020/04/04 10:11:27.000   37.469563956 -121.958131707  2339.0904   5  12
2020/04/04 10:11:27.500   37.469215066 -121.958061163  2339.1045   5  12
2020/04/04 10:11:28.000   37.468865488 -121.957996203  2339.1185   5  12
2020/04/04 10:11:28.500   37.468515278 -121.957936837  2339.1322   5  12
2020/04/04 10:11:29.000   37.468164493 -121.957883076  2339.1457   5  12
2020/04/04 10:11:29.500   37.467813191 -121.957834928  2339.1591   5  12
2020/04/04 10:11:30.000   37.467461429 -121.957792401  2339.1722   5  12
2020/04/04 10:11:30.500   37.467109263 -121.957755501  2339.1851   5  12
2020/04/04 10:11:31.000   37.466756751 -121.957724234  2339.1979   5  12
2020/04/04 10:11:31.500   37.466403949 -121.957698606  2339.2104   5  12
2020/04/04 10:11:32.000   37.466050916 -121.957678621  2339.2228   5  12
2020/04/04 10:11:32.500   37.465697709 -121.957664281  2339.2350   5  12
2020/04/04 10:11:33.000   37.465344385 -121.957655590  2339.2470   5  12
2020/04/04 10:11:33.500   37.464991001 -121.957652547  2339.2588   5  12
2020/04/04 10:11:34.000   37.464637615 -121.957655154  2339.2705   5  12
2020/04/04 10:11:34.500   37.464284284 -121.957663411  2339.2819   5  12
2020/04/04 10:11:35.000   37.463931066 -121.957677315  2339.2932   5  12
2020/04/04 10:11:35.500   37.463578017 -121.957696864  2339.3043   5  12
2020/04/04 10:11:36.000   37.463225196 -121.957722056  2339.3152   5  12
2020/04/04 10:11:36.500   37.462872594 -121.957751728  2339.3261   5  12
2020/04/04 10:11:37.000   37.462520011 -121.957781762  2339.3372   5  12
2020/04/04 10:11:37.500   37.462167428 -121.957811796  2339.3485   5  12
2020/04/04 10:11:38.000   37.461814845 -121.957841830  2339.3600   5  12
2020/04/04 10:11:38.500   37.461462262 -121.957871864  2339.3718   5  12
2020/04/04 10:11:39.000   37.461109679 -121.957901897  2339.3838   5  12
2020/04/04 10:11:39.500   37.460757096 -121.957931930  2339.3961   5  12
2020/04/04 10:11:40.000   37.460404513 -121.957961963  2339.4086   5  12
2020/04/04 10:11:40.500   37.460051930 -121.957991995  2339.4214   5  12
2020/04/04 10:11:41.000   37.459699347 -121.958022027  2339.4344   5  12
2020/04/04 10:11:41.500   37.459346764 -121.958052059  2339.4476   5  12
2020/04/04 10:11:42.000   37.458994181 -121.958082091  2339.4611   5  12
2020/04/04 10:11:42.500   37.458641598 -121.958112122  2339.4748   5  12
2020/04/04 10:11:43.000   37.458289015 -121.958142153  2339.4888   5  12
2020/04/04 10:11:43.500   37.457936432 -121.958172184  2339.5030   5  12
2020/04/04 10:11:44.000   37.457583848 -121.958202214  2339.5175   5  12
2020/04/04 10:11:44.500   37.457231265 -121.958232245  2339.5322   5  12
2020/04/04 10:11:45.000   37.456878682 -121.958262274  2339.5471   5  12
2020/04/04 10:11:45.500   37.456526099 -121.958292304  2339.5623   5  12
2020/04/04 10:11:46.000   37.456173515 -121.958322333  2339.5777   5  12
2020/04/04 10:11:46.500   37.455820932 -121.958352362  2339.5934   5  12
2020/04/04 10:11:47.000   37.455468349 -121.958382391  2339.6093   5  12
2020/04/04 10:11:47.500   37.455115765 -121.958412420  2339.6254   5  12
2020/04/04 10:11:48.000   37.454763182 -121.958442448  2339.6418   5  12
2020/04/04 10:11:48.500   37.454410598 -121.958472476  2339.6584   5  12
2020/04/04 10:11:49.000   37.454058015 -121.958502503  2339.6753   5  12
2020/04/04 10:11:49.500   37.453705431 -121.958532531  2339.6924   5  12
2020/04/04 10:11:50.000   37.453352848 -121.958562558  2339.7098   5  12
2020/04/04 10:11:50.500   37.453000264 -121.958592585  2339.7274   5  12
2020/04/04 10:11:51.000   37.452647681 -121.958622611  2339.7452   5  12
2020/04/04 10:11:51.500   37.452295097 -121.958652637  2339.7633   5  12
2020/04/04 10:11:52.000   37.451942513 -121.958682663  2339.7816   5  12
2020/04/04 10:11:52.500   37.451589930 -121.958712689  2339.8002   5  12
2020/04/04 10:11:53.000   37.451237346 -121.958742714  2339.8190   5  12
2020/04/04 10:11:53.500   37.450884762 -121.958772739  2339.8381   5  12
2020/04/04 10:11:54.000   37.450532179 -121.958802764  2339.8573   5  12
2020/04/04 10:11:54.500   37.450179595 -121.958832789  2339.8769   5  12
2020/04/04 10:11:55.000   37.449827011 -121.958862813  2339.8967   5  12
2020/04/04 10:11:55.500   37.449474427 -121.958892837  2339.9167   5  12
2020/04/04 10:11:56.000   37.449121843 -121.958922861  2339.9369   5  12
2020/04/04 10:11:56.500   37.448769259 -121.958952884  2339.9574   5  12
2020/04/04 10:11:57.000   37.448416675 -121.958982907  2339.9782   5  12
2020/04/04 10:11:57.500   37.448064092 -121.959012930  2339.9992   5  12
2020/04/04 10:11:58.000   37.447711508 -121.959042953  2340.0204   5  12
2020/04/04 10:11:58.500   37.447358924 -121.959072975  2340.0419   5  12
2020/04/04 10:11:59.000   37.447006340 -121.959102997  2340.0636   5  12
2020/04/04 10:11:59.500   37.446653756 -121.959133019  2340.0855   5  12
2020/04/04 10:12:00.000   37.446301171 -121.959163040  2340.1077   5  12
2020/04/04 10:12:00.500   37.445948587 -121.959193061  2340.1302   5  12
2020/04/04 10:12:01.000   37.445596003 -121.959223082  2340.1529   5  12
2020/04/04 10:12:01.500   37.445243419 -121.959253103  2340.1758   5  12
2020/04/04 10:12:02.000   37.444890835 -121.959283123  2340.1989   5  12
2020/04/04 10:12:02.500   37.444538251 -121.959313143  2340.2224   5  12
2020/04/04 10:12:03.000   37.444185666 -121.959343163  2340.2460   5  12
2020/04/04 10:12:03.500   37.443833082 -121.959373182  2340.2699   5  12
2020/04/04 10:12:04.000   37.443480498 -121.959403201  2340.2940   5  12
2020/04/04 10:12:04.500   37.443127914 -121.959433220  2340.3184   5  12
2020/04/04 10:12:05.000   37.442775329 -121.959463239  2340.3430   5  12
2020/04/04 10:12:05.500   37.442422745 -121.959493257  2340.3679   5  12
2020/04/04 10:12:06.000   37.442070161 -121.959523275  2340.3930   5  12
2020/04/04 10:12:06.500   37.441717576 -121.959553293  2340.4183   5  12
2020/04/04 10:12:07.000   37.441364992 -121.959583310  2340.4439   5  12
2020/04/04 10:12:07.500   37.441012407 -121.959613328  2340.4697   5  12
2020/04/04 10:12:08.000   37.440659823 -121.959643345  2340.4958   5  12
2020/04/04 10:12:08.500   37.440307238 -121.959673361  2340.5221   5  12
2020/04/04 10:12:09.000   37.439954654 -121.959703378  2340.5487   5  12
2020/04/04 10:12:09.500   37.439602069 -121.959733394  2340.5755   5  12
2020/04/04 10:12:10.000   37.439249485 -121.959763409  2340.6025   5  12
2020/04/04 10:12:10.500   37.438896900 -121.959793425  2340.6298   5  12
2020/04/04 10:12:11.000   37.438544315 -121.959823440  2340.6573   5  12
2020/04/04 10:12:11.500   37.438191731 -121.959853455  2340.6851   5  12
2020/04/04 10:12:12.000   37.437839146 -121.959883470  2340.7131   5  12
2020/04/04 10:12:12.500   37.437486561 -121.959913484  2340.7413   5  12
2020/04/04 10:12:13.000   37.437133977 -121.959943498  2340.7698   5  12
2020/04/04 10:12:13.500   37.436781392 -121.959973512  2340.7985   5  12
2020/04/04 10:12:14.000   37.436428807 -121.960003526  2340.8275   5  12
2020/04/04 10:12:14.500   37.436076222 -121.960033539  2340.8567   5  12
2020/04/04 10:12:15.000   37.435723637 -121.960063552  2340.8862   5  12
2020/04/04 10:12:15.500   37.435371052 -121.960093565  2340.9159   5  12
2020/04/04 10:12:16.000   37.435018468 -121.960123577  2340.9458   5  12
2020/04/04 10:12:16.500   37.434665883 -121.960153589  2340.9760   5  12
2020/04/04 10:12:17.000   37.434313298 -121.960183601  2341.0064   5  12
2020/04/04 10:12:17.500   37.433960713 -121.960213613  2341.0371   5  12
2020/04/04 10:12:18.000   37.433608128 -121.960243624  2341.0680   5  12
2020/04/04 10:12:18.500   37.433255543 -121.960273635  2341.0992   5  12
2020/04/04 10:12:19.000   37.432902958 -121.960303646  2341.1305   5  12
2020/04/04 10:12:19.500   37.432550373 -121.960333656  2341.1622   5  12
2020/04/04 10:12:20.000   37.432197787 -121.960363666  2341.1941   5  12
2020/04/04 10:12:20.500   37.431845202 -121.960393676  2341.2262   5  12
2020/04/04 10:12:21.000   37.431492617 -121.960423686  2341.2585   5  12
2020/04/04 10:12:21.500   37.431140032 -121.960453695  2341.2911   5  12
2020/04/04 10:12:22.000   37.430787447 -121.960483704  2341.3240   5  12
2020/04/04 10:12:22.500   37.430434862 -121.960513713  2341.3571   5  12
2020/04/04 10:12:23.000   37.430082276 -121.960543721  2341.3904   5  12
2020/04/04 10:12:23.500   37.429729691 -121.960573729  2341.4240   5  12
2020/04/04 10:12:24.000   37.429377106 -121.960603737  2341.4578   5  12
2020/04/04 10:12:24.500   37.429024520 -121.960633745  2341.4918   5  12
2020/04/04 10:12:25.000   37.428671935 -121.960663752  2341.5261   5  12
2020/04/04 10:12:25.500   37.428319350 -121.960693759  2341.5607   5  12
2020/04/04 10:12:26.000   37.427966764 -121.960723766  2341.5955   5  12
2020/04/04 10:12:26.500   37.427614179 -121.960753772  2341.6305   5  12
2020/04/04 10:12:27.000   37.427261594 -121.960783779  2341.6657   5  12
2020/04/04 10:12:27.500   37.426909008 -121.960813785  2341.7013   5  12
2020/04/04 10:12:28.000   37.426556423 -121.960843790  2341.7370   5  12
2020/04/04 10:12:28.500   37.426203837 -121.960873796  2341.7730   5  12
2020/04/04 10:12:29.000   37.425851251 -121.960903801  2341.8092   5  12
2020/04/04 10:12:29.500   37.425498666 -121.960933805  2341.8457   5  12
2020/04/04 10:12:30.000   37.425146080 -121.960963810  2341.8824   5  12
2020/04/04 10:12:30.500   37.424793495 -121.960993814  2341.9194   5  12
2020/04/04 10:12:31.000   37.424440909 -121.961023818  2341.9566   5  12
2020/04/04 10:12:31.500   37.424088323 -121.961053822  2341.9940   5  12
2020/04/04 10:12:32.000   37.423735738 -121.961083825  2342.0317   5  12
2020/04/04 10:12:32.500   37.423383152 -121.961113828  2342.0696   5  12
2020/04/04 10:12:33.000   37.423030566 -121.961143831  2342.1078   5  12
2020/04/04 10:12:33.500   37.422677980 -121.961173834  2342.1462   5  12
2020/04/04 10:12:34.000   37.422325395 -121.961203836  2342.1849   5  12
2020/04/04 10:12:34.500   37.421972809 -121.961233838  2342.2238   5  12
2020/04/04 10:12:35.000   37.421620223 -121.961263840  2342.2629   5  12
2020/04/04 10:12:35.500   37.421267637 -121.961293841  2342.3023   5  12
2020/04/04 10:12:36.000   37.420915051 -121.961323842  2342.3419   5  12
2020/04/04 10:12:36.500   37.420562465 -121.961353843  2342.3818   5  12
2020/04/04 10:12:37.000   37.420209879 -121.961383844  2342.4219   5  12
2020/04/04 10:12:37.500   37.419857293 -121.961413844  2342.4622   5  12
