% program   : RTKPOST ver.2.4.2
% inp file  : C:\work\globsky\IP\SignalSim\XmlObsGen\test.o
% inp file  : C:\work\globsky\IP\SignalSim\XmlObsGen\EphData\JPLM00USA_R_20200950000_01D_GN.rnx
% obs start : 2020/04/04 10:05:48.0 GPST (week2099 554748.0s)
% obs end   : 2020/04/04 10:26:21.0 GPST (week2099 555981.0s)
% pos mode  : single
% elev mask : 5.0 deg
% ionos opt : broadcast
% tropo opt : saastamoinen
% ephemeris : broadcast
% navi sys  : gps
%
% (x/y/z-ecef=WGS84,Q=1:fix,2:float,3:sbas,4:dgps,5:single,6:ppp,ns=# of satellites)
%  GPST                      x-ecef(m)      y-ecef(m)      z-ecef(m)   Q  ns   sdx(m)   sdy(m)   sdz(m)  sdxy(m)  sdyz(m)  sdzx(m) age(s)  ratio
2020/04/04 10:05:48.000  -2683726.7364  -4308942.7724   3848595.4191   5   9   3.8667   4.0365   2.7752   3.5236  -2.6405  -2.5467   0.00    0.0
2020/04/04 10:05:49.000  -2683728.3171  -4308939.0942   3848598.4143   5   9   3.8668   4.0370   2.7751   3.5239  -2.6407  -2.5468   0.00    0.0
2020/04/04 10:05:50.000  -2683729.8978  -4308935.4160   3848601.4100   5   9   3.8669   4.0375   2.7751   3.5242  -2.6408  -2.5468   0.00    0.0
2020/04/04 10:05:51.000  -2683731.4788  -4308931.7383   3848604.4054   5   9   3.8670   4.0380   2.7751   3.5246  -2.6410  -2.5468   0.00    0.0
2020/04/04 10:05:52.000  -2683733.0602  -4308928.0613   3848607.4016   5   9   3.8671   4.0385   2.7751   3.5249  -2.6412  -2.5468   0.00    0.0
2020/04/04 10:05:53.000  -2683734.6404  -4308924.3827   3848610.3969   5   9   3.8671   4.0390   2.7750   3.5252  -2.6414  -2.5469   0.00    0.0
2020/04/04 10:05:54.000  -2683736.2739  -4308920.5820   3848613.4924   5   9   3.8672   4.0395   2.7750   3.5255  -2.6415  -2.5469   0.00    0.0
2020/04/04 10:05:55.000  -2683738.2235  -4308916.0454   3848617.1867   5   9   3.8673   4.0400   2.7750   3.5258  -2.6417  -2.5469   0.00    0.0
2020/04/04 10:05:56.000  -2683740.8057  -4308910.0387   3848622.0794   5   9   3.8674   4.0404   2.7749   3.5262  -2.6419  -2.5469   0.00    0.0
2020/04/04 10:05:57.000  -2683744.2826  -4308901.9460   3848628.6696   5   9   3.8675   4.0409   2.7749   3.5265  -2.6421  -2.5469   0.00    0.0
2020/04/04 10:05:58.000  -2683748.7085  -4308891.6478   3848637.0574   5   9   3.8676   4.0414   2.7749   3.5268  -2.6422  -2.5470   0.00    0.0
2020/04/04 10:05:59.000  -2683754.0828  -4308879.1424   3848647.2420   5   9   3.8676   4.0419   2.7748   3.5271  -2.6424  -2.5470   0.00    0.0
2020/04/04 10:06:00.000  -2683760.4059  -4308864.4304   3848659.2241   5   9   3.8677   4.0424   2.7748   3.5274  -2.6426  -2.5470   0.00    0.0
2020/04/04 10:06:01.000  -2683767.6765  -4308847.5108   3848673.0036   5   9   3.8678   4.0429   2.7748   3.5277  -2.6427  -2.5470   0.00    0.0
2020/04/04 10:06:02.000  -2683775.8959  -4308828.3850   3848688.5803   5   9   3.8679   4.0434   2.7747   3.5281  -2.6429  -2.5470   0.00    0.0
2020/04/04 10:06:03.000  -2683785.0637  -4308807.0518   3848705.9544   5   9   3.8680   4.0438   2.7747   3.5284  -2.6431  -2.5471   0.00    0.0
2020/04/04 10:06:04.000  -2683795.1815  -4308783.5136   3848725.1269   5   9   3.8680   4.0443   2.7747   3.5287  -2.6433  -2.5471   0.00    0.0
2020/04/04 10:06:05.000  -2683806.2449  -4308757.7662   3848746.0951   5   9   3.8681   4.0448   2.7746   3.5290  -2.6434  -2.5471   0.00    0.0
2020/04/04 10:06:06.000  -2683818.2594  -4308729.8139   3848768.8617   5   9   3.8682   4.0453   2.7746   3.5293  -2.6436  -2.5471   0.00    0.0
2020/04/04 10:06:07.000  -2683831.2204  -4308699.6532   3848793.4250   5   9   3.8683   4.0458   2.7746   3.5296  -2.6438  -2.5471   0.00    0.0
2020/04/04 10:06:08.000  -2683845.1307  -4308667.2866   3848819.7861   5   9   3.8684   4.0463   2.7745   3.5300  -2.6439  -2.5472   0.00    0.0
2020/04/04 10:06:09.000  -2683859.9895  -4308632.7131   3848847.9443   5   9   3.8684   4.0467   2.7745   3.5303  -2.6441  -2.5472   0.00    0.0
2020/04/04 10:06:10.000  -2683875.7962  -4308595.9324   3848877.8995   5   9   3.8685   4.0472   2.7745   3.5306  -2.6443  -2.5472   0.00    0.0
2020/04/04 10:06:11.000  -2683892.5526  -4308556.9456   3848909.6529   5   9   3.8686   4.0477   2.7744   3.5309  -2.6445  -2.5472   0.00    0.0
2020/04/04 10:06:12.000  -2683910.2548  -4308515.7502   3848943.2023   5   9   3.8687   4.0482   2.7744   3.5312  -2.6446  -2.5472   0.00    0.0
2020/04/04 10:06:13.000  -2683928.9073  -4308472.3492   3848978.5499   5   9   3.8687   4.0487   2.7744   3.5315  -2.6448  -2.5472   0.00    0.0
2020/04/04 10:06:14.000  -2683948.5081  -4308426.7416   3849015.6952   5   9   3.8688   4.0492   2.7743   3.5318  -2.6450  -2.5473   0.00    0.0
2020/04/04 10:06:15.000  -2683969.0570  -4308378.9271   3849054.6373   5   9   3.8689   4.0496   2.7743   3.5322  -2.6451  -2.5473   0.00    0.0
2020/04/04 10:06:16.000  -2683990.5549  -4308328.9059   3849095.3769   5   9   3.8690   4.0501   2.7743   3.5325  -2.6453  -2.5473   0.00    0.0
2020/04/04 10:06:17.000  -2684012.9737  -4308276.7383   3849137.8635   5   9   3.8691   4.0506   2.7742   3.5328  -2.6455  -2.5473   0.00    0.0
2020/04/04 10:06:18.000  -2684036.1838  -4308222.7319   3849181.8481   5   9   3.8691   4.0511   2.7742   3.5331  -2.6456  -2.5473   0.00    0.0
2020/04/04 10:06:19.000  -2684060.0258  -4308167.2549   3849227.0311   5   9   3.8692   4.0516   2.7742   3.5334  -2.6458  -2.5473   0.00    0.0
2020/04/04 10:06:20.000  -2684084.3432  -4308110.6751   3849273.1134   5   9   3.8693   4.0521   2.7741   3.5337  -2.6460  -2.5473   0.00    0.0
2020/04/04 10:06:21.000  -2684108.9752  -4308053.3585   3849319.7934   5   9   3.8694   4.0525   2.7741   3.5340  -2.6461  -2.5474   0.00    0.0
2020/04/04 10:06:22.000  -2684133.7656  -4307995.6741   3849366.7740   5   9   3.8694   4.0530   2.7741   3.5343  -2.6463  -2.5474   0.00    0.0
2020/04/04 10:06:23.000  -2684159.0028  -4307938.6033   3849414.4103   5   9   3.8695   4.0535   2.7740   3.5346  -2.6465  -2.5474   0.00    0.0
2020/04/04 10:06:24.000  -2684185.0812  -4307882.8824   3849463.2616   5   9   3.8696   4.0540   2.7740   3.5350  -2.6466  -2.5474   0.00    0.0
2020/04/04 10:06:25.000  -2684211.9997  -4307828.5098   3849513.3263   5   9   3.8697   4.0545   2.7740   3.5353  -2.6468  -2.5474   0.00    0.0
2020/04/04 10:06:26.000  -2684239.7575  -4307775.4854   3849564.6033   5   9   3.8697   4.0550   2.7739   3.5356  -2.6470  -2.5474   0.00    0.0
2020/04/04 10:06:27.000  -2684268.3583  -4307723.8121   3849617.0959   5   9   3.8698   4.0554   2.7739   3.5359  -2.6471  -2.5474   0.00    0.0
2020/04/04 10:06:28.000  -2684297.7986  -4307673.4866   3849670.8012   5   9   3.8699   4.0559   2.7739   3.5362  -2.6473  -2.5474   0.00    0.0
2020/04/04 10:06:29.000  -2684328.0791  -4307624.5117   3849725.7205   5   9   3.8699   4.0564   2.7738   3.5365  -2.6475  -2.5474   0.00    0.0
2020/04/04 10:06:30.000  -2684359.2014  -4307576.8849   3849781.8534   5   9   3.8700   4.0569   2.7738   3.5368  -2.6476  -2.5474   0.00    0.0
2020/04/04 10:06:31.000  -2684391.1628  -4307530.6076   3849839.1993   5   9   3.8701   4.0573   2.7737   3.5371  -2.6478  -2.5475   0.00    0.0
2020/04/04 10:06:32.000  -2684423.9663  -4307485.6798   3849897.7592   5   9   3.8701   4.0578   2.7737   3.5374  -2.6480  -2.5475   0.00    0.0
2020/04/04 10:06:33.000  -2684457.1826  -4307441.4148   3849956.9167   5   9   3.8702   4.0583   2.7737   3.5377  -2.6481  -2.5475   0.00    0.0
2020/04/04 10:06:34.000  -2684490.3989  -4307397.1505   3850016.0740   5   9   3.8703   4.0588   2.7736   3.5380  -2.6483  -2.5475   0.00    0.0
2020/04/04 10:06:35.000  -2684523.6157  -4307352.8870   3850075.2319   5   9   3.8704   4.0593   2.7736   3.5383  -2.6484  -2.5475   0.00    0.0
2020/04/04 10:06:36.000  -2684556.8320  -4307308.6220   3850134.3888   5   9   3.8704   4.0597   2.7735   3.5386  -2.6486  -2.5475   0.00    0.0
2020/04/04 10:06:37.000  -2684590.0485  -4307264.3587   3850193.5464   5   9   3.8705   4.0602   2.7735   3.5389  -2.6488  -2.5475   0.00    0.0
2020/04/04 10:06:38.000  -2684623.2650  -4307220.0939   3850252.7035   5   9   3.8706   4.0607   2.7735   3.5392  -2.6489  -2.5475   0.00    0.0
2020/04/04 10:06:39.000  -2684656.4819  -4307175.8305   3850311.8616   5   9   3.8706   4.0612   2.7734   3.5395  -2.6491  -2.5475   0.00    0.0
2020/04/04 10:06:40.000  -2684689.6983  -4307131.5662   3850371.0187   5   9   3.8707   4.0616   2.7734   3.5398  -2.6492  -2.5475   0.00    0.0
2020/04/04 10:06:41.000  -2684722.9145  -4307087.3021   3850430.1761   5   9   3.8708   4.0621   2.7734   3.5401  -2.6494  -2.5475   0.00    0.0
2020/04/04 10:06:42.000  -2684756.1310  -4307043.0376   3850489.3337   5   9   3.8708   4.0626   2.7733   3.5404  -2.6496  -2.5475   0.00    0.0
2020/04/04 10:06:43.000  -2684789.3477  -4306998.7733   3850548.4906   5   9   3.8709   4.0631   2.7733   3.5408  -2.6497  -2.5475   0.00    0.0
2020/04/04 10:06:44.000  -2684822.5646  -4306954.5097   3850607.6481   5   9   3.8710   4.0635   2.7732   3.5411  -2.6499  -2.5475   0.00    0.0
2020/04/04 10:06:45.000  -2684855.7808  -4306910.2454   3850666.8056   5   9   3.8710   4.0640   2.7732   3.5414  -2.6500  -2.5475   0.00    0.0
2020/04/04 10:06:46.000  -2684888.9970  -4306865.9804   3850725.9628   5   9   3.8711   4.0645   2.7732   3.5417  -2.6502  -2.5475   0.00    0.0
2020/04/04 10:06:47.000  -2684922.2132  -4306821.7160   3850785.1203   5   9   3.8712   4.0649   2.7731   3.5420  -2.6503  -2.5475   0.00    0.0
2020/04/04 10:06:48.000  -2684955.4302  -4306777.4522   3850844.2777   5   9   3.8712   4.0654   2.7731   3.5423  -2.6505  -2.5475   0.00    0.0
2020/04/04 10:06:49.000  -2684988.6467  -4306733.1881   3850903.4350   5   9   3.8713   4.0659   2.7730   3.5426  -2.6507  -2.5475   0.00    0.0
2020/04/04 10:06:50.000  -2685021.8628  -4306688.9236   3850962.5923   5   9   3.8713   4.0664   2.7730   3.5429  -2.6508  -2.5475   0.00    0.0
2020/04/04 10:06:51.000  -2685055.0802  -4306644.6602   3851021.7503   5   9   3.8714   4.0668   2.7730   3.5432  -2.6510  -2.5475   0.00    0.0
2020/04/04 10:06:52.000  -2685088.2965  -4306600.3961   3851080.9077   5   9   3.8715   4.0673   2.7729   3.5435  -2.6511  -2.5476   0.00    0.0
2020/04/04 10:06:53.000  -2685121.5122  -4306556.1305   3851140.0641   5   9   3.8715   4.0678   2.7729   3.5438  -2.6513  -2.5476   0.00    0.0
2020/04/04 10:06:54.000  -2685154.7290  -4306511.8671   3851199.2219   5   9   3.8716   4.0683   2.7728   3.5441  -2.6514  -2.5476   0.00    0.0
2020/04/04 10:06:55.000  -2685187.9459  -4306467.6037   3851258.3794   5   9   3.8717   4.0687   2.7728   3.5443  -2.6516  -2.5476   0.00    0.0
2020/04/04 10:06:56.000  -2685221.1620  -4306423.3387   3851317.5362   5   9   3.8717   4.0692   2.7728   3.5446  -2.6518  -2.5476   0.00    0.0
2020/04/04 10:06:57.000  -2685254.3780  -4306379.0743   3851376.6935   5   9   3.8718   4.0697   2.7727   3.5449  -2.6519  -2.5476   0.00    0.0
2020/04/04 10:06:58.000  -2685287.5951  -4306334.8103   3851435.8512   5   9   3.8719   4.0701   2.7727   3.5452  -2.6521  -2.5476   0.00    0.0
2020/04/04 10:06:59.000  -2685320.8115  -4306290.5458   3851495.0091   5   9   3.8719   4.0706   2.7726   3.5455  -2.6522  -2.5476   0.00    0.0
2020/04/04 10:07:00.000  -2685354.0281  -4306246.2816   3851554.1663   5   9   3.8720   4.0711   2.7726   3.5458  -2.6524  -2.5476   0.00    0.0
2020/04/04 10:07:01.000  -2685387.2444  -4306202.0174   3851613.3234   5   9   3.8720   4.0716   2.7726   3.5461  -2.6525  -2.5476   0.00    0.0
2020/04/04 10:07:02.000  -2685420.4612  -4306157.7540   3851672.4809   5   9   3.8721   4.0720   2.7725   3.5464  -2.6527  -2.5476   0.00    0.0
2020/04/04 10:07:03.000  -2685453.6783  -4306113.4899   3851731.6384   5   9   3.8722   4.0725   2.7725   3.5467  -2.6528  -2.5476   0.00    0.0
2020/04/04 10:07:04.000  -2685486.8932  -4306069.2240   3851790.7948   5   9   3.8722   4.0730   2.7724   3.5470  -2.6530  -2.5476   0.00    0.0
2020/04/04 10:07:05.000  -2685520.1107  -4306024.9609   3851849.9528   5   9   3.8723   4.0734   2.7724   3.5473  -2.6532  -2.5476   0.00    0.0
2020/04/04 10:07:06.000  -2685553.3269  -4305980.6966   3851909.1103   5   9   3.8723   4.0739   2.7724   3.5476  -2.6533  -2.5476   0.00    0.0
2020/04/04 10:07:07.000  -2685586.5429  -4305936.4318   3851968.2670   5   9   3.8724   4.0744   2.7723   3.5479  -2.6535  -2.5476   0.00    0.0
2020/04/04 10:07:08.000  -2685619.7605  -4305892.1683   3852027.4251   5   9   3.8725   4.0749   2.7723   3.5482  -2.6536  -2.5476   0.00    0.0
2020/04/04 10:07:09.000  -2685652.9765  -4305847.9044   3852086.5823   5   9   3.8725   4.0753   2.7722   3.5485  -2.6538  -2.5476   0.00    0.0
2020/04/04 10:07:10.000  -2685686.1924  -4305803.6397   3852145.7392   5   9   3.8726   4.0758   2.7722   3.5488  -2.6539  -2.5476   0.00    0.0
2020/04/04 10:07:11.000  -2685719.4093  -4305759.3756   3852204.8974   5   9   3.8726   4.0763   2.7722   3.5491  -2.6541  -2.5476   0.00    0.0
2020/04/04 10:07:12.000  -2685752.6256  -4305715.1111   3852264.0545   5   9   3.8727   4.0767   2.7721   3.5494  -2.6542  -2.5476   0.00    0.0
2020/04/04 10:07:13.000  -2685785.8420  -4305670.8469   3852323.2116   5   9   3.8728   4.0772   2.7721   3.5497  -2.6544  -2.5475   0.00    0.0
2020/04/04 10:07:14.000  -2685819.0582  -4305626.5818   3852382.3686   5   9   3.8728   4.0777   2.7720   3.5500  -2.6545  -2.5475   0.00    0.0
2020/04/04 10:07:15.000  -2685852.2748  -4305582.3182   3852441.5262   5   9   3.8729   4.0781   2.7720   3.5503  -2.6547  -2.5475   0.00    0.0
2020/04/04 10:07:16.000  -2685885.4922  -4305538.0553   3852500.6840   5   9   3.8729   4.0786   2.7719   3.5505  -2.6548  -2.5475   0.00    0.0
2020/04/04 10:07:17.000  -2685918.7086  -4305493.7906   3852559.8416   5   9   3.8730   4.0791   2.7719   3.5508  -2.6550  -2.5475   0.00    0.0
2020/04/04 10:07:18.000  -2685951.9256  -4305449.5269   3852618.9991   5   9   3.8730   4.0795   2.7719   3.5511  -2.6551  -2.5475   0.00    0.0
2020/04/04 10:07:19.000  -2685985.1417  -4305405.2622   3852678.1563   5   9   3.8731   4.0800   2.7718   3.5514  -2.6553  -2.5475   0.00    0.0
2020/04/04 10:07:20.000  -2686018.3586  -4305360.9984   3852737.3138   5   9   3.8732   4.0805   2.7718   3.5517  -2.6554  -2.5475   0.00    0.0
2020/04/04 10:07:21.000  -2686051.5737  -4305316.7330   3852796.4703   5   9   3.8732   4.0809   2.7717   3.5520  -2.6556  -2.5475   0.00    0.0
2020/04/04 10:07:22.000  -2686084.7910  -4305272.4693   3852855.6282   5   9   3.8733   4.0814   2.7717   3.5523  -2.6557  -2.5475   0.00    0.0
2020/04/04 10:07:23.000  -2686118.0073  -4305228.2054   3852914.7853   5   9   3.8733   4.0819   2.7717   3.5526  -2.6559  -2.5475   0.00    0.0
2020/04/04 10:07:24.000  -2686151.2240  -4305183.9406   3852973.9427   5   9   3.8734   4.0823   2.7716   3.5529  -2.6560  -2.5475   0.00    0.0
2020/04/04 10:07:25.000  -2686184.4405  -4305139.6767   3853033.1003   5   9   3.8734   4.0828   2.7716   3.5532  -2.6562  -2.5475   0.00    0.0
2020/04/04 10:07:26.000  -2686217.6570  -4305095.4129   3853092.2573   5   9   3.8735   4.0833   2.7715   3.5535  -2.6563  -2.5475   0.00    0.0
2020/04/04 10:07:27.000  -2686250.8731  -4305051.1484   3853151.4151   5   9   3.8736   4.0837   2.7715   3.5537  -2.6565  -2.5475   0.00    0.0
2020/04/04 10:07:28.000  -2686284.0899  -4305006.8844   3853210.5721   5   9   3.8736   4.0842   2.7714   3.5540  -2.6566  -2.5475   0.00    0.0
2020/04/04 10:07:29.000  -2686317.3065  -4304962.6202   3853269.7300   5   9   3.8737   4.0847   2.7714   3.5543  -2.6568  -2.5475   0.00    0.0
2020/04/04 10:07:30.000  -2686350.5229  -4304918.3561   3853328.8874   5   9   3.8737   4.0851   2.7714   3.5546  -2.6569  -2.5475   0.00    0.0
2020/04/04 10:07:31.000  -2686383.7388  -4304874.0911   3853388.0443   5   9   3.8738   4.0856   2.7713   3.5549  -2.6571  -2.5475   0.00    0.0
2020/04/04 10:07:32.000  -2686416.9556  -4304829.8267   3853447.2016   5   9   3.8738   4.0861   2.7713   3.5552  -2.6572  -2.5475   0.00    0.0
2020/04/04 10:07:33.000  -2686450.1725  -4304785.5628   3853506.3590   5   9   3.8739   4.0865   2.7712   3.5555  -2.6574  -2.5475   0.00    0.0
2020/04/04 10:07:34.000  -2686483.3884  -4304741.2983   3853565.5162   5   9   3.8739   4.0870   2.7712   3.5558  -2.6575  -2.5474   0.00    0.0
2020/04/04 10:07:35.000  -2686516.6051  -4304697.0345   3853624.6736   5   9   3.8740   4.0875   2.7711   3.5560  -2.6577  -2.5474   0.00    0.0
2020/04/04 10:07:36.000  -2686549.8221  -4304652.7709   3853683.8315   5   9   3.8740   4.0879   2.7711   3.5563  -2.6578  -2.5474   0.00    0.0
2020/04/04 10:07:37.000  -2686583.0388  -4304608.5067   3853742.9890   5   9   3.8741   4.0884   2.7711   3.5566  -2.6580  -2.5474   0.00    0.0
2020/04/04 10:07:38.000  -2686616.2550  -4304564.2426   3853802.1464   5   9   3.8741   4.0889   2.7710   3.5569  -2.6581  -2.5474   0.00    0.0
2020/04/04 10:07:39.000  -2686649.4722  -4304519.9785   3853861.3037   5   9   3.8742   4.0893   2.7710   3.5572  -2.6583  -2.5474   0.00    0.0
2020/04/04 10:07:40.000  -2686682.6881  -4304475.7144   3853920.4609   5   9   3.8742   4.0898   2.7709   3.5575  -2.6584  -2.5474   0.00    0.0
2020/04/04 10:07:41.000  -2686715.9040  -4304431.4493   3853979.6178   5   9   3.8743   4.0903   2.7709   3.5578  -2.6586  -2.5474   0.00    0.0
2020/04/04 10:07:42.000  -2686749.1211  -4304387.1853   3854038.7757   5   9   3.8743   4.0907   2.7708   3.5580  -2.6587  -2.5474   0.00    0.0
2020/04/04 10:07:43.000  -2686782.3372  -4304342.9211   3854097.9329   5   9   3.8744   4.0912   2.7708   3.5583  -2.6589  -2.5474   0.00    0.0
2020/04/04 10:07:44.000  -2686815.5534  -4304298.6564   3854157.0897   5   9   3.8744   4.0916   2.7708   3.5586  -2.6590  -2.5474   0.00    0.0
2020/04/04 10:07:45.000  -2686848.7702  -4304254.3930   3854216.2474   5   9   3.8745   4.0921   2.7707   3.5589  -2.6591  -2.5474   0.00    0.0
2020/04/04 10:07:46.000  -2686881.9866  -4304210.1282   3854275.4047   5   9   3.8745   4.0926   2.7707   3.5592  -2.6593  -2.5473   0.00    0.0
2020/04/04 10:07:47.000  -2686915.2033  -4304165.8640   3854334.5620   5   9   3.8746   4.0930   2.7706   3.5595  -2.6594  -2.5473   0.00    0.0
2020/04/04 10:07:48.000  -2686948.4208  -4304121.6010   3854393.7205   5   9   3.8746   4.0935   2.7706   3.5597  -2.6596  -2.5473   0.00    0.0
2020/04/04 10:07:49.000  -2686981.6369  -4304077.3366   3854452.8777   5   9   3.8747   4.0940   2.7705   3.5600  -2.6597  -2.5473   0.00    0.0
2020/04/04 10:07:50.000  -2687014.8528  -4304033.0713   3854512.0339   5   9   3.8747   4.0944   2.7705   3.5603  -2.6599  -2.5473   0.00    0.0
2020/04/04 10:07:51.000  -2687048.0688  -4303988.8070   3854571.1914   5   9   3.8748   4.0949   2.7704   3.5606  -2.6600  -2.5473   0.00    0.0
2020/04/04 10:07:52.000  -2687081.2861  -4303944.5434   3854630.3491   5   9   3.8748   4.0953   2.7704   3.5609  -2.6602  -2.5473   0.00    0.0
2020/04/04 10:07:53.000  -2687114.5023  -4303900.2790   3854689.5065   5   9   3.8749   4.0958   2.7704   3.5612  -2.6603  -2.5473   0.00    0.0
2020/04/04 10:07:54.000  -2687147.7194  -4303856.0155   3854748.6643   5   9   3.8749   4.0963   2.7703   3.5614  -2.6604  -2.5473   0.00    0.0
2020/04/04 10:07:55.000  -2687180.9351  -4303811.7504   3854807.8212   5   9   3.8750   4.0967   2.7703   3.5617  -2.6606  -2.5472   0.00    0.0
2020/04/04 10:07:56.000  -2687214.1516  -4303767.4864   3854866.9781   5   9   3.8750   4.0972   2.7702   3.5620  -2.6607  -2.5472   0.00    0.0
2020/04/04 10:07:57.000  -2687247.3680  -4303723.2220   3854926.1361   5   9   3.8751   4.0976   2.7702   3.5623  -2.6609  -2.5472   0.00    0.0
2020/04/04 10:07:58.000  -2687280.5844  -4303678.9575   3854985.2927   5   9   3.8751   4.0981   2.7701   3.5626  -2.6610  -2.5472   0.00    0.0
2020/04/04 10:07:59.000  -2687313.8013  -4303634.6937   3855044.4502   5   9   3.8752   4.0986   2.7701   3.5628  -2.6612  -2.5472   0.00    0.0
2020/04/04 10:08:00.000  -2687347.0181  -4303590.4295   3855103.6084   5   9   3.8752   4.0990   2.7700   3.5631  -2.6613  -2.5472   0.00    0.0
2020/04/04 10:08:01.000  -2687380.2349  -4303546.1658   3855162.7655   5   9   3.8753   4.0995   2.7700   3.5634  -2.6614  -2.5472   0.00    0.0
2020/04/04 10:08:02.000  -2687413.4508  -4303501.9015   3855221.9227   5   9   3.8753   4.0999   2.7699   3.5637  -2.6616  -2.5472   0.00    0.0
2020/04/04 10:08:03.000  -2687446.6672  -4303457.6365   3855281.0800   5   9   3.8754   4.1004   2.7699   3.5640  -2.6617  -2.5471   0.00    0.0
2020/04/04 10:08:04.000  -2687479.8840  -4303413.3731   3855340.2374   5   9   3.8754   4.1009   2.7699   3.5642  -2.6619  -2.5471   0.00    0.0
2020/04/04 10:08:05.000  -2687513.1005  -4303369.1082   3855399.3952   5   9   3.8755   4.1013   2.7698   3.5645  -2.6620  -2.5471   0.00    0.0
2020/04/04 10:08:06.000  -2687546.3173  -4303324.8450   3855458.5525   5   9   3.8755   4.1018   2.7698   3.5648  -2.6622  -2.5471   0.00    0.0
2020/04/04 10:08:07.000  -2687579.5330  -4303280.5799   3855517.7092   5   9   3.8755   4.1022   2.7697   3.5651  -2.6623  -2.5471   0.00    0.0
2020/04/04 10:08:08.000  -2687612.7497  -4303236.3162   3855576.8668   5   9   3.8756   4.1027   2.7697   3.5653  -2.6624  -2.5471   0.00    0.0
2020/04/04 10:08:09.000  -2687645.9659  -4303192.0516   3855636.0241   5   9   3.8756   4.1032   2.7696   3.5656  -2.6626  -2.5471   0.00    0.0
2020/04/04 10:08:10.000  -2687679.1833  -4303147.7881   3855695.1817   5   9   3.8757   4.1036   2.7696   3.5659  -2.6627  -2.5470   0.00    0.0
2020/04/04 10:08:11.000  -2687712.3992  -4303103.5230   3855754.3390   5   9   3.8757   4.1041   2.7695   3.5662  -2.6629  -2.5470   0.00    0.0
2020/04/04 10:08:12.000  -2687745.6158  -4303059.2595   3855813.4966   5   9   3.8758   4.1045   2.7695   3.5665  -2.6630  -2.5470   0.00    0.0
2020/04/04 10:08:13.000  -2687778.6195  -4303014.6540   3855872.3456   5   9   3.8758   4.1050   2.7694   3.5667  -2.6631  -2.5470   0.00    0.0
2020/04/04 10:08:14.000  -2687811.2007  -4302969.3732   3855930.5861   5   9   3.8758   4.1054   2.7694   3.5670  -2.6633  -2.5470   0.00    0.0
2020/04/04 10:08:15.000  -2687843.3622  -4302923.4196   3855988.2199   5   9   3.8759   4.1059   2.7694   3.5673  -2.6634  -2.5470   0.00    0.0
2020/04/04 10:08:16.000  -2687875.1022  -4302876.7923   3856045.2453   5   9   3.8759   4.1064   2.7693   3.5676  -2.6635  -2.5470   0.00    0.0
2020/04/04 10:08:17.000  -2687906.4219  -4302829.4910   3856101.6633   5   9   3.8760   4.1068   2.7693   3.5678  -2.6637  -2.5469   0.00    0.0
2020/04/04 10:08:18.000  -2687937.3220  -4302781.5176   3856157.4741   5   9   3.8760   4.1073   2.7692   3.5681  -2.6638  -2.5469   0.00    0.0
2020/04/04 10:08:19.000  -2687967.8005  -4302732.8699   3856212.6773   5   9   3.8761   4.1077   2.7692   3.5684  -2.6640  -2.5469   0.00    0.0
2020/04/04 10:08:20.000  -2687997.8576  -4302683.5481   3856267.2724   5   9   3.8761   4.1082   2.7691   3.5687  -2.6641  -2.5469   0.00    0.0
2020/04/04 10:08:21.000  -2688027.4945  -4302633.5524   3856321.2594   5   9   3.8761   4.1086   2.7691   3.5689  -2.6642  -2.5469   0.00    0.0
2020/04/04 10:08:22.000  -2688056.7107  -4302582.8841   3856374.6396   5   9   3.8762   4.1091   2.7690   3.5692  -2.6644  -2.5469   0.00    0.0
2020/04/04 10:08:23.000  -2688085.5060  -4302531.5414   3856427.4113   5   9   3.8762   4.1096   2.7690   3.5695  -2.6645  -2.5468   0.00    0.0
2020/04/04 10:08:24.000  -2688113.8813  -4302479.5263   3856479.5762   5   9   3.8763   4.1100   2.7689   3.5698  -2.6647  -2.5468   0.00    0.0
2020/04/04 10:08:25.000  -2688141.8348  -4302426.8360   3856531.1330   5   9   3.8763   4.1105   2.7689   3.5700  -2.6648  -2.5468   0.00    0.0
2020/04/04 10:08:26.000  -2688169.3679  -4302373.4730   3856582.0820   5   9   3.8764   4.1109   2.7688   3.5703  -2.6649  -2.5468   0.00    0.0
2020/04/04 10:08:27.000  -2688196.4797  -4302319.4359   3856632.4237   5   9   3.8764   4.1114   2.7688   3.5706  -2.6651  -2.5468   0.00    0.0
2020/04/04 10:08:28.000  -2688223.1723  -4302264.7264   3856682.1576   5   9   3.8764   4.1118   2.7688   3.5708  -2.6652  -2.5468   0.00    0.0
2020/04/04 10:08:29.000  -2688249.4427  -4302209.3420   3856731.2839   5   9   3.8765   4.1123   2.7687   3.5711  -2.6654  -2.5467   0.00    0.0
2020/04/04 10:08:30.000  -2688275.2929  -4302153.2843   3856779.8026   5   9   3.8765   4.1128   2.7687   3.5714  -2.6655  -2.5467   0.00    0.0
2020/04/04 10:08:31.000  -2688300.7227  -4302096.5532   3856827.7132   5   9   3.8766   4.1132   2.7686   3.5717  -2.6656  -2.5467   0.00    0.0
2020/04/04 10:08:32.000  -2688325.7319  -4302039.1493   3856875.0172   5   9   3.8766   4.1137   2.7686   3.5719  -2.6658  -2.5467   0.00    0.0
2020/04/04 10:08:33.000  -2688350.4912  -4301981.3447   3856921.9594   5   9   3.8766   4.1141   2.7685   3.5722  -2.6659  -2.5467   0.00    0.0
2020/04/04 10:08:34.000  -2688375.2476  -4301923.5368   3856968.8991   5   9   3.8767   4.1146   2.7685   3.5725  -2.6660  -2.5467   0.00    0.0
2020/04/04 10:08:35.000  -2688400.0056  -4301865.7298   3857015.8394   5   9   3.8767   4.1150   2.7684   3.5728  -2.6662  -2.5466   0.00    0.0
2020/04/04 10:08:36.000  -2688424.7618  -4301807.9207   3857062.7786   5   9   3.8768   4.1155   2.7684   3.5730  -2.6663  -2.5466   0.00    0.0
2020/04/04 10:08:37.000  -2688449.5179  -4301750.1127   3857109.7175   5   9   3.8768   4.1160   2.7683   3.5733  -2.6665  -2.5466   0.00    0.0
2020/04/04 10:08:38.000  -2688474.2759  -4301692.3057   3857156.6580   5   9   3.8768   4.1164   2.7683   3.5736  -2.6666  -2.5466   0.00    0.0
2020/04/04 10:08:39.000  -2688499.0319  -4301634.4966   3857203.5973   5   9   3.8769   4.1169   2.7683   3.5738  -2.6667  -2.5466   0.00    0.0
2020/04/04 10:08:40.000  -2688523.7892  -4301576.6898   3857250.5373   5   9   3.8769   4.1173   2.7682   3.5741  -2.6669  -2.5465   0.00    0.0
2020/04/04 10:08:41.000  -2688548.5469  -4301518.8822   3857297.4770   5   9   3.8770   4.1178   2.7682   3.5744  -2.6670  -2.5465   0.00    0.0
2020/04/04 10:08:42.000  -2688573.3036  -4301461.0737   3857344.4163   5   9   3.8770   4.1182   2.7681   3.5747  -2.6671  -2.5465   0.00    0.0
2020/04/04 10:08:43.000  -2688598.0603  -4301403.2656   3857391.3563   5   9   3.8770   4.1187   2.7681   3.5749  -2.6673  -2.5465   0.00    0.0
2020/04/04 10:08:44.000  -2688622.8174  -4301345.4583   3857438.2956   5   9   3.8771   4.1191   2.7680   3.5752  -2.6674  -2.5465   0.00    0.0
2020/04/04 10:08:45.000  -2688647.5741  -4301287.6502   3857485.2353   5   9   3.8771   4.1196   2.7680   3.5755  -2.6676  -2.5464   0.00    0.0
2020/04/04 10:08:46.000  -2688672.3312  -4301229.8424   3857532.1752   5   9   3.8771   4.1201   2.7679   3.5757  -2.6677  -2.5464   0.00    0.0
2020/04/04 10:08:47.000  -2688697.0877  -4301172.0340   3857579.1142   5   9   3.8772   4.1205   2.7679   3.5760  -2.6678  -2.5464   0.00    0.0
2020/04/04 10:08:48.000  -2688721.8456  -4301114.2269   3857626.0550   5   9   3.8772   4.1210   2.7678   3.5763  -2.6680  -2.5464   0.00    0.0
2020/04/04 10:08:49.000  -2688746.6022  -4301056.4190   3857672.9937   5   9   3.8773   4.1214   2.7678   3.5765  -2.6681  -2.5464   0.00    0.0
2020/04/04 10:08:50.000  -2688771.3592  -4300998.6108   3857719.9335   5   9   3.8773   4.1219   2.7677   3.5768  -2.6682  -2.5463   0.00    0.0
2020/04/04 10:08:51.000  -2688796.1162  -4300940.8035   3857766.8739   5   9   3.8773   4.1223   2.7677   3.5771  -2.6684  -2.5463   0.00    0.0
2020/04/04 10:08:52.000  -2688820.8737  -4300882.9957   3857813.8132   5   9   3.8774   4.1228   2.7676   3.5774  -2.6685  -2.5463   0.00    0.0
2020/04/04 10:08:53.000  -2688845.6303  -4300825.1878   3857860.7529   5   9   3.8774   4.1232   2.7676   3.5776  -2.6686  -2.5463   0.00    0.0
2020/04/04 10:08:54.000  -2688870.3877  -4300767.3804   3857907.6929   5   9   3.8774   4.1237   2.7676   3.5779  -2.6688  -2.5463   0.00    0.0
2020/04/04 10:08:55.000  -2688895.1448  -4300709.5727   3857954.6324   5   9   3.8775   4.1241   2.7675   3.5782  -2.6689  -2.5462   0.00    0.0
2020/04/04 10:08:56.000  -2688919.9011  -4300651.7641   3858001.5718   5   9   3.8775   4.1246   2.7675   3.5784  -2.6690  -2.5462   0.00    0.0
2020/04/04 10:08:57.000  -2688944.6590  -4300593.9572   3858048.5116   5   9   3.8775   4.1250   2.7674   3.5787  -2.6692  -2.5462   0.00    0.0
2020/04/04 10:08:58.000  -2688969.4150  -4300536.1486   3858095.4513   5   9   3.8776   4.1255   2.7674   3.5790  -2.6693  -2.5462   0.00    0.0
2020/04/04 10:08:59.000  -2688994.1725  -4300478.3409   3858142.3909   5   9   3.8776   4.1259   2.7673   3.5792  -2.6694  -2.5461   0.00    0.0
2020/04/04 10:09:00.000  -2689018.9297  -4300420.5337   3858189.3308   5   9   3.8776   4.1264   2.7673   3.5795  -2.6696  -2.5461   0.00    0.0
2020/04/04 10:09:01.000  -2689043.6859  -4300362.7250   3858236.2704   5   9   3.8777   4.1268   2.7672   3.5797  -2.6697  -2.5461   0.00    0.0
2020/04/04 10:09:02.000  -2689068.4441  -4300304.9184   3858283.2101   5   9   3.8777   4.1273   2.7672   3.5800  -2.6698  -2.5461   0.00    0.0
2020/04/04 10:09:03.000  -2689092.5062  -4300247.1628   3858330.5705   5   9   3.8777   4.1277   2.7671   3.5803  -2.6700  -2.5461   0.00    0.0
2020/04/04 10:09:04.000  -2689114.8640  -4300189.5625   3858378.9432   5   9   3.8778   4.1282   2.7671   3.5805  -2.6701  -2.5460   0.00    0.0
2020/04/04 10:09:05.000  -2689135.4914  -4300132.1518   3858428.3019   5   9   3.8778   4.1287   2.7670   3.5808  -2.6702  -2.5460   0.00    0.0
2020/04/04 10:09:06.000  -2689154.3761  -4300074.9711   3858478.6139   5   9   3.8778   4.1291   2.7670   3.5811  -2.6704  -2.5460   0.00    0.0
2020/04/04 10:09:07.000  -2689171.5043  -4300018.0541   3858529.8466   5   9   3.8779   4.1296   2.7669   3.5813  -2.6705  -2.5460   0.00    0.0
2020/04/04 10:09:08.000  -2689186.8675  -4299961.4413   3858581.9674   5   9   3.8779   4.1300   2.7669   3.5816  -2.6706  -2.5459   0.00    0.0
2020/04/04 10:09:09.000  -2689200.4538  -4299905.1673   3858634.9422   5   9   3.8779   4.1305   2.7668   3.5819  -2.6707  -2.5459   0.00    0.0
2020/04/04 10:09:10.000  -2689212.2554  -4299849.2693   3858688.7366   5   9   3.8780   4.1309   2.7668   3.5821  -2.6709  -2.5459   0.00    0.0
2020/04/04 10:09:11.000  -2689222.2636  -4299793.7833   3858743.3150   5   9   3.8780   4.1313   2.7667   3.5824  -2.6710  -2.5459   0.00    0.0
2020/04/04 10:09:12.000  -2689230.4727  -4299738.7462   3858798.6426   5   9   3.8780   4.1318   2.7667   3.5826  -2.6711  -2.5458   0.00    0.0
2020/04/04 10:09:13.000  -2689236.8785  -4299684.1946   3858854.6845   5   9   3.8781   4.1322   2.7666   3.5829  -2.6713  -2.5458   0.00    0.0
2020/04/04 10:09:14.000  -2689241.4746  -4299630.1608   3858911.4025   5   9   3.8781   4.1327   2.7666   3.5832  -2.6714  -2.5458   0.00    0.0
2020/04/04 10:09:15.000  -2689244.2583  -4299576.6813   3858968.7597   5   9   3.8781   4.1331   2.7666   3.5834  -2.6715  -2.5457   0.00    0.0
2020/04/04 10:09:16.000  -2689245.2302  -4299523.7938   3859026.7216   5   9   3.8781   4.1336   2.7665   3.5837  -2.6716  -2.5457   0.00    0.0
2020/04/04 10:09:17.000  -2689244.3868  -4299471.5283   3859085.2474   5   9   3.8782   4.1340   2.7665   3.5839  -2.6718  -2.5457   0.00    0.0
2020/04/04 10:09:18.000  -2689241.7301  -4299419.9212   3859144.3006   5   9   3.8782   4.1345   2.7664   3.5842  -2.6719  -2.5457   0.00    0.0
2020/04/04 10:09:19.000  -2689237.2620  -4299369.0050   3859203.8428   5   9   3.8782   4.1349   2.7664   3.5845  -2.6720  -2.5456   0.00    0.0
2020/04/04 10:09:20.000  -2689230.9843  -4299318.8139   3859263.8346   5   9   3.8783   4.1354   2.7663   3.5847  -2.6722  -2.5456   0.00    0.0
2020/04/04 10:09:21.000  -2689222.9023  -4299269.3794   3859324.2384   5   9   3.8783   4.1358   2.7663   3.5850  -2.6723  -2.5456   0.00    0.0
2020/04/04 10:09:22.000  -2689213.0207  -4299220.7342   3859385.0141   5   9   3.8783   4.1363   2.7662   3.5852  -2.6724  -2.5455   0.00    0.0
2020/04/04 10:09:23.000  -2689201.3466  -4299172.9111   3859446.1224   5   9   3.8784   4.1367   2.7662   3.5855  -2.6725  -2.5455   0.00    0.0
2020/04/04 10:09:24.000  -2689187.8868  -4299125.9383   3859507.5232   5   9   3.8784   4.1372   2.7661   3.5858  -2.6727  -2.5455   0.00    0.0
2020/04/04 10:09:25.000  -2689172.6501  -4299079.8488   3859569.1774   5   9   3.8784   4.1376   2.7661   3.5860  -2.6728  -2.5455   0.00    0.0
2020/04/04 10:09:26.000  -2689155.6464  -4299034.6719   3859631.0449   5   9   3.8784   4.1381   2.7660   3.5863  -2.6729  -2.5454   0.00    0.0
2020/04/04 10:09:27.000  -2689136.8868  -4298990.4355   3859693.0845   5   9   3.8785   4.1385   2.7660   3.5865  -2.6730  -2.5454   0.00    0.0
2020/04/04 10:09:28.000  -2689116.3835  -4298947.1705   3859755.2574   5   9   3.8785   4.1390   2.7659   3.5868  -2.6732  -2.5454   0.00    0.0
2020/04/04 10:09:29.000  -2689094.1504  -4298904.9039   3859817.5218   5   9   3.8785   4.1394   2.7659   3.5870  -2.6733  -2.5453   0.00    0.0
2020/04/04 10:09:30.000  -2689070.2017  -4298863.6650   3859879.8383   5   9   3.8785   4.1398   2.7658   3.5873  -2.6734  -2.5453   0.00    0.0
2020/04/04 10:09:31.000  -2689044.5519  -4298823.4772   3859942.1664   5   9   3.8786   4.1403   2.7658   3.5876  -2.6735  -2.5453   0.00    0.0
2020/04/04 10:09:32.000  -2689017.2197  -4298784.3691   3860004.4650   5   9   3.8786   4.1407   2.7658   3.5878  -2.6737  -2.5452   0.00    0.0
2020/04/04 10:09:33.000  -2688988.2214  -4298746.3664   3860066.6943   5   9   3.8786   4.1412   2.7657   3.5881  -2.6738  -2.5452   0.00    0.0
2020/04/04 10:09:34.000  -2688957.5745  -4298709.4902   3860128.8122   5   9   3.8787   4.1416   2.7657   3.5883  -2.6739  -2.5452   0.00    0.0
2020/04/04 10:09:35.000  -2688925.3032  -4298673.7699   3860190.7813   5   9   3.8787   4.1421   2.7656   3.5886  -2.6740  -2.5452   0.00    0.0
2020/04/04 10:09:36.000  -2688891.4244  -4298639.2248   3860252.5598   5   9   3.8787   4.1425   2.7656   3.5888  -2.6742  -2.5451   0.00    0.0
2020/04/04 10:09:37.000  -2688855.9618  -4298605.8793   3860314.1079   5   9   3.8787   4.1430   2.7655   3.5891  -2.6743  -2.5451   0.00    0.0
2020/04/04 10:09:38.000  -2688818.9386  -4298573.7541   3860375.3847   5   9   3.8788   4.1434   2.7655   3.5893  -2.6744  -2.5451   0.00    0.0
2020/04/04 10:09:39.000  -2688780.3782  -4298542.8695   3860436.3512   5   9   3.8788   4.1438   2.7654   3.5896  -2.6745  -2.5450   0.00    0.0
2020/04/04 10:09:40.000  -2688740.3054  -4298513.2472   3860496.9679   5   9   3.8788   4.1443   2.7654   3.5899  -2.6747  -2.5450   0.00    0.0
2020/04/04 10:09:41.000  -2688698.7482  -4298484.9059   3860557.1955   5   9   3.8788   4.1447   2.7653   3.5901  -2.6748  -2.5450   0.00    0.0
2020/04/04 10:09:42.000  -2688655.7312  -4298457.8632   3860616.9938   5   9   3.8788   4.1452   2.7653   3.5904  -2.6749  -2.5449   0.00    0.0
2020/04/04 10:09:43.000  -2688611.2837  -4298432.1377   3860676.3256   5   9   3.8789   4.1456   2.7652   3.5906  -2.6750  -2.5449   0.00    0.0
2020/04/04 10:09:44.000  -2688565.4334  -4298407.7447   3860735.1515   5   9   3.8789   4.1461   2.7652   3.5909  -2.6751  -2.5449   0.00    0.0
2020/04/04 10:09:45.000  -2688518.2121  -4298384.7020   3860793.4334   5   9   3.8789   4.1465   2.7652   3.5911  -2.6753  -2.5448   0.00    0.0
2020/04/04 10:09:46.000  -2688469.6489  -4298363.0239   3860851.1340   5   9   3.8789   4.1469   2.7651   3.5914  -2.6754  -2.5448   0.00    0.0
2020/04/04 10:09:47.000  -2688419.7758  -4298342.7240   3860908.2146   5   9   3.8790   4.1474   2.7651   3.5916  -2.6755  -2.5448   0.00    0.0
2020/04/04 10:09:48.000  -2688368.6242  -4298323.8148   3860964.6387   5   9   3.8790   4.1478   2.7650   3.5919  -2.6756  -2.5447   0.00    0.0
2020/04/04 10:09:49.000  -2688316.2302  -4298306.3111   3861020.3705   5   9   3.8790   4.1483   2.7650   3.5921  -2.6757  -2.5447   0.00    0.0
2020/04/04 10:09:50.000  -2688262.6241  -4298290.2223   3861075.3730   5   9   3.8790   4.1487   2.7649   3.5924  -2.6759  -2.5447   0.00    0.0
2020/04/04 10:09:51.000  -2688207.8428  -4298275.5580   3861129.6100   5   9   3.8791   4.1491   2.7649   3.5926  -2.6760  -2.5446   0.00    0.0
2020/04/04 10:09:52.000  -2688151.9237  -4298262.3314   3861183.0485   5   9   3.8791   4.1496   2.7648   3.5929  -2.6761  -2.5446   0.00    0.0
2020/04/04 10:09:53.000  -2688094.8989  -4298250.5474   3861235.6508   5   9   3.8791   4.1500   2.7648   3.5931  -2.6762  -2.5446   0.00    0.0
2020/04/04 10:09:54.000  -2688036.8081  -4298240.2145   3861287.3845   5   9   3.8791   4.1505   2.7647   3.5934  -2.6764  -2.5445   0.00    0.0
2020/04/04 10:09:55.000  -2687977.6890  -4298231.3409   3861338.2165   5   9   3.8791   4.1509   2.7647   3.5936  -2.6765  -2.5445   0.00    0.0
2020/04/04 10:09:56.000  -2687917.5801  -4298223.9315   3861388.1125   5   9   3.8792   4.1513   2.7646   3.5939  -2.6766  -2.5445   0.00    0.0
2020/04/04 10:09:57.000  -2687856.5201  -4298217.9915   3861437.0410   5   9   3.8792   4.1518   2.7646   3.5941  -2.6767  -2.5444   0.00    0.0
2020/04/04 10:09:58.000  -2687794.5469  -4298213.5230   3861484.9691   5   9   3.8792   4.1522   2.7646   3.5944  -2.6768  -2.5444   0.00    0.0
2020/04/04 10:09:59.000  -2687731.7039  -4298210.5316   3861531.8673   5   9   3.8792   4.1527   2.7645   3.5946  -2.6769  -2.5443   0.00    0.0
2020/04/04 10:10:00.000  -2687668.0305  -4298209.0188   3861577.7041   5   9   3.8792   4.1531   2.7645   3.5949  -2.6771  -2.5443   0.00    0.0
2020/04/04 10:10:01.000  -2687603.5674  -4298208.9829   3861622.4501   5   9   3.8793   4.1535   2.7644   3.5951  -2.6772  -2.5443   0.00    0.0
2020/04/04 10:10:02.000  -2687538.3570  -4298210.4260   3861666.0757   5   9   3.8793   4.1540   2.7644   3.5953  -2.6773  -2.5442   0.00    0.0
2020/04/04 10:10:03.000  -2687472.4421  -4298213.3480   3861708.5535   5   9   3.8793   4.1544   2.7643   3.5956  -2.6774  -2.5442   0.00    0.0
2020/04/04 10:10:04.000  -2687405.8658  -4298217.7460   3861749.8551   5   9   3.8793   4.1548   2.7643   3.5958  -2.6775  -2.5442   0.00    0.0
2020/04/04 10:10:05.000  -2687338.6704  -4298223.6170   3861789.9543   5   9   3.8793   4.1553   2.7642   3.5961  -2.6777  -2.5441   0.00    0.0
2020/04/04 10:10:06.000  -2687270.8999  -4298230.9581   3861828.8253   5   9   3.8793   4.1557   2.7642   3.5963  -2.6778  -2.5441   0.00    0.0
2020/04/04 10:10:07.000  -2687202.5982  -4298239.7626   3861866.4416   5   9   3.8794   4.1561   2.7641   3.5966  -2.6779  -2.5441   0.00    0.0
2020/04/04 10:10:08.000  -2687133.8092  -4298250.0263   3861902.7796   5   9   3.8794   4.1566   2.7641   3.5968  -2.6780  -2.5440   0.00    0.0
2020/04/04 10:10:09.000  -2687064.5788  -4298261.7428   3861937.8156   5   9   3.8794   4.1570   2.7640   3.5971  -2.6781  -2.5440   0.00    0.0
2020/04/04 10:10:10.000  -2686994.9523  -4298274.9039   3861971.5273   5   9   3.8794   4.1574   2.7640   3.5973  -2.6782  -2.5440   0.00    0.0
2020/04/04 10:10:11.000  -2686924.9737  -4298289.5016   3862003.8933   5   9   3.8794   4.1579   2.7640   3.5975  -2.6784  -2.5439   0.00    0.0
2020/04/04 10:10:12.000  -2686854.6885  -4298305.5264   3862034.8905   5   9   3.8794   4.1583   2.7639   3.5978  -2.6785  -2.5439   0.00    0.0
2020/04/04 10:10:13.000  -2686784.1412  -4298322.9652   3862064.5001   5   9   3.8795   4.1587   2.7639   3.5980  -2.6786  -2.5438   0.00    0.0
2020/04/04 10:10:14.000  -2686713.3817  -4298341.8119   3862092.7035   5   9   3.8795   4.1592   2.7638   3.5983  -2.6787  -2.5438   0.00    0.0
2020/04/04 10:10:15.000  -2686642.4515  -4298362.0495   3862119.4814   5   9   3.8795   4.1596   2.7638   3.5985  -2.6788  -2.5438   0.00    0.0
2020/04/04 10:10:16.000  -2686571.3993  -4298383.6677   3862144.8168   5   9   3.8795   4.1600   2.7637   3.5987  -2.6789  -2.5437   0.00    0.0
2020/04/04 10:10:17.000  -2686500.2709  -4298406.6514   3862168.6937   5   9   3.8795   4.1605   2.7637   3.5990  -2.6790  -2.5437   0.00    0.0
2020/04/04 10:10:18.000  -2686429.1113  -4298430.9858   3862191.0948   5   9   3.8795   4.1609   2.7636   3.5992  -2.6792  -2.5437   0.00    0.0
2020/04/04 10:10:19.000  -2686357.9677  -4298456.6551   3862212.0083   5   9   3.8795   4.1613   2.7636   3.5995  -2.6793  -2.5436   0.00    0.0
2020/04/04 10:10:20.000  -2686286.8870  -4298483.6432   3862231.4188   5   9   3.8796   4.1618   2.7635   3.5997  -2.6794  -2.5436   0.00    0.0
2020/04/04 10:10:21.000  -2686215.9136  -4298511.9318   3862249.3144   5   9   3.8796   4.1622   2.7635   3.5999  -2.6795  -2.5435   0.00    0.0
2020/04/04 10:10:22.000  -2686145.0945  -4298541.5026   3862265.6823   5   9   3.8796   4.1626   2.7634   3.6002  -2.6796  -2.5435   0.00    0.0
2020/04/04 10:10:23.000  -2686074.4770  -4298572.3373   3862280.5144   5   9   3.8796   4.1631   2.7634   3.6004  -2.6797  -2.5435   0.00    0.0
2020/04/04 10:10:24.000  -2686004.1049  -4298604.4153   3862293.7983   5   9   3.8796   4.1635   2.7633   3.6007  -2.6799  -2.5434   0.00    0.0
2020/04/04 10:10:25.000  -2685934.0262  -4298637.7168   3862305.5273   5   9   3.8796   4.1639   2.7633   3.6009  -2.6800  -2.5434   0.00    0.0
2020/04/04 10:10:26.000  -2685864.2828  -4298672.2165   3862315.6923   5   9   3.8796   4.1643   2.7632   3.6011  -2.6801  -2.5434   0.00    0.0
2020/04/04 10:10:27.000  -2685794.9236  -4298707.8961   3862324.2880   5   9   3.8796   4.1648   2.7632   3.6014  -2.6802  -2.5433   0.00    0.0
2020/04/04 10:10:28.000  -2685725.9929  -4298744.7321   3862331.3091   5   9   3.8796   4.1652   2.7631   3.6016  -2.6803  -2.5433   0.00    0.0
2020/04/04 10:10:29.000  -2685657.5332  -4298782.6981   3862336.7495   5   9   3.8797   4.1656   2.7631   3.6018  -2.6804  -2.5432   0.00    0.0
2020/04/04 10:10:30.000  -2685589.5914  -4298821.7709   3862340.6061   5   9   3.8797   4.1660   2.7630   3.6021  -2.6805  -2.5432   0.00    0.0
2020/04/04 10:10:31.000  -2685522.2117  -4298861.9259   3862342.8778   5   9   3.8797   4.1665   2.7630   3.6023  -2.6806  -2.5432   0.00    0.0
2020/04/04 10:10:32.000  -2685455.4367  -4298903.1360   3862343.5618   5   9   3.8797   4.1669   2.7629   3.6025  -2.6808  -2.5431   0.00    0.0
2020/04/04 10:10:33.000  -2685389.3098  -4298945.3742   3862342.6579   5   9   3.8797   4.1673   2.7629   3.6028  -2.6809  -2.5431   0.00    0.0
2020/04/04 10:10:34.000  -2685323.8750  -4298988.6147   3862340.1675   5   9   3.8797   4.1678   2.7628   3.6030  -2.6810  -2.5430   0.00    0.0
2020/04/04 10:10:35.000  -2685259.1731  -4299032.8267   3862336.0907   5   9   3.8797   4.1682   2.7628   3.6032  -2.6811  -2.5430   0.00    0.0
2020/04/04 10:10:36.000  -2685195.2489  -4299077.9856   3862330.4321   5   9   3.8797   4.1686   2.7627   3.6035  -2.6812  -2.5430   0.00    0.0
2020/04/04 10:10:37.000  -2685132.1415  -4299124.0583   3862323.1936   5   9   3.8797   4.1690   2.7627   3.6037  -2.6813  -2.5429   0.00    0.0
2020/04/04 10:10:38.000  -2685069.8919  -4299171.0157   3862314.3803   5   9   3.8797   4.1695   2.7626   3.6039  -2.6814  -2.5429   0.00    0.0
2020/04/04 10:10:39.000  -2685008.5415  -4299218.8281   3862303.9990   5   9   3.8797   4.1699   2.7626   3.6042  -2.6815  -2.5429   0.00    0.0
2020/04/04 10:10:40.000  -2684948.1303  -4299267.4646   3862292.0559   5   9   3.8797   4.1703   2.7625   3.6044  -2.6816  -2.5428   0.00    0.0
2020/04/04 10:10:41.000  -2684888.6966  -4299316.8926   3862278.5579   5   9   3.8797   4.1707   2.7625   3.6046  -2.6818  -2.5428   0.00    0.0
2020/04/04 10:10:42.000  -2684830.2811  -4299367.0813   3862263.5156   5   9   3.8798   4.1711   2.7624   3.6048  -2.6819  -2.5427   0.00    0.0
2020/04/04 10:10:43.000  -2684772.9198  -4299417.9980   3862246.9371   5   9   3.8798   4.1716   2.7624   3.6051  -2.6820  -2.5427   0.00    0.0
2020/04/04 10:10:44.000  -2684716.6488  -4299469.6071   3862228.8329   5   9   3.8798   4.1720   2.7623   3.6053  -2.6821  -2.5427   0.00    0.0
2020/04/04 10:10:45.000  -2684661.5086  -4299521.8800   3862209.2179   5   9   3.8798   4.1724   2.7623   3.6055  -2.6822  -2.5426   0.00    0.0
2020/04/04 10:10:46.000  -2684607.5313  -4299574.7775   3862188.1008   5   9   3.8798   4.1728   2.7622   3.6058  -2.6823  -2.5426   0.00    0.0
2020/04/04 10:10:47.000  -2684554.7540  -4299628.2689   3862165.4979   5   9   3.8798   4.1733   2.7622   3.6060  -2.6824  -2.5425   0.00    0.0
2020/04/04 10:10:48.000  -2684503.2108  -4299682.3188   3862141.4237   5   9   3.8798   4.1737   2.7621   3.6062  -2.6825  -2.5425   0.00    0.0
2020/04/04 10:10:49.000  -2684452.9334  -4299736.8895   3862115.8923   5   9   3.8798   4.1741   2.7621   3.6064  -2.6826  -2.5424   0.00    0.0
2020/04/04 10:10:50.000  -2684403.9569  -4299791.9494   3862088.9218   5   9   3.8798   4.1745   2.7620   3.6067  -2.6827  -2.5424   0.00    0.0
2020/04/04 10:10:51.000  -2684356.3126  -4299847.4607   3862060.5295   5   9   3.8798   4.1749   2.7620   3.6069  -2.6829  -2.5424   0.00    0.0
2020/04/04 10:10:52.000  -2684310.0309  -4299903.3882   3862030.7338   5   9   3.8798   4.1754   2.7619   3.6071  -2.6830  -2.5423   0.00    0.0
2020/04/04 10:10:53.000  -2684265.1406  -4299959.6930   3861999.5530   5   9   3.8798   4.1758   2.7619   3.6073  -2.6831  -2.5423   0.00    0.0
2020/04/04 10:10:54.000  -2684221.6724  -4300016.3420   3861967.0088   5   9   3.8798   4.1762   2.7618   3.6076  -2.6832  -2.5422   0.00    0.0
2020/04/04 10:10:55.000  -2684179.6545  -4300073.2965   3861933.1218   5   9   3.8798   4.1766   2.7618   3.6078  -2.6833  -2.5422   0.00    0.0
2020/04/04 10:10:56.000  -2684139.1155  -4300130.5218   3861897.9151   5   9   3.8798   4.1770   2.7617   3.6080  -2.6834  -2.5422   0.00    0.0
2020/04/04 10:10:57.000  -2684100.0786  -4300187.9767   3861861.4090   5   9   3.8798   4.1774   2.7617   3.6082  -2.6835  -2.5421   0.00    0.0
2020/04/04 10:10:58.000  -2684062.5718  -4300245.6272   3861823.6298   5   9   3.8798   4.1779   2.7616   3.6085  -2.6836  -2.5421   0.00    0.0
2020/04/04 10:10:59.000  -2684026.6182  -4300303.4349   3861784.6002   5   9   3.8798   4.1783   2.7615   3.6087  -2.6837  -2.5420   0.00    0.0
2020/04/04 10:11:00.000  -2683992.2417  -4300361.3623   3861744.3473   5   9   3.8798   4.1787   2.7615   3.6089  -2.6838  -2.5420   0.00    0.0
2020/04/04 10:11:01.000  -2683959.4649  -4300419.3725   3861702.8968   5   9   3.8798   4.1791   2.7614   3.6091  -2.6839  -2.5419   0.00    0.0
2020/04/04 10:11:02.000  -2683928.3081  -4300477.4260   3861660.2744   5   9   3.8798   4.1795   2.7614   3.6093  -2.6840  -2.5419   0.00    0.0
2020/04/04 10:11:03.000  -2683898.7911  -4300535.4856   3861616.5084   5   9   3.8798   4.1799   2.7613   3.6096  -2.6841  -2.5419   0.00    0.0
2020/04/04 10:11:04.000  -2683870.9352  -4300593.5153   3861571.6276   5   9   3.8798   4.1804   2.7613   3.6098  -2.6842  -2.5418   0.00    0.0
2020/04/04 10:11:05.000  -2683844.7579  -4300651.4775   3861525.6616   5   9   3.8798   4.1808   2.7612   3.6100  -2.6843  -2.5418   0.00    0.0
2020/04/04 10:11:06.000  -2683820.2750  -4300709.3317   3861478.6395   5   9   3.8798   4.1812   2.7612   3.6102  -2.6845  -2.5417   0.00    0.0
2020/04/04 10:11:07.000  -2683797.5037  -4300767.0430   3861430.5922   5   9   3.8798   4.1816   2.7611   3.6104  -2.6846  -2.5417   0.00    0.0
2020/04/04 10:11:08.000  -2683776.4576  -4300824.5724   3861381.5506   5   9   3.8798   4.1820   2.7610   3.6107  -2.6847  -2.5416   0.00    0.0
2020/04/04 10:11:09.000  -2683757.1509  -4300881.8825   3861331.5464   5   9   3.8798   4.1824   2.7610   3.6109  -2.6848  -2.5416   0.00    0.0
2020/04/04 10:11:10.000  -2683739.5974  -4300938.9384   3861280.6139   5   9   3.8798   4.1829   2.7609   3.6111  -2.6849  -2.5416   0.00    0.0
2020/04/04 10:11:11.000  -2683723.8059  -4300995.7006   3861228.7833   5   9   3.8798   4.1833   2.7609   3.6113  -2.6850  -2.5415   0.00    0.0
2020/04/04 10:11:12.000  -2683709.7890  -4301052.1328   3861176.0907   5   9   3.8797   4.1837   2.7608   3.6115  -2.6851  -2.5415   0.00    0.0
2020/04/04 10:11:13.000  -2683697.5548  -4301108.1986   3861122.5688   5   9   3.8797   4.1841   2.7608   3.6117  -2.6852  -2.5414   0.00    0.0
2020/04/04 10:11:14.000  -2683687.1112  -4301163.8619   3861068.2532   5   9   3.8797   4.1845   2.7607   3.6120  -2.6853  -2.5414   0.00    0.0
2020/04/04 10:11:15.000  -2683678.4650  -4301219.0861   3861013.1790   5   9   3.8797   4.1849   2.7606   3.6122  -2.6854  -2.5413   0.00    0.0
2020/04/04 10:11:16.000  -2683671.6232  -4301273.8370   3860957.3822   5   9   3.8797   4.1853   2.7606   3.6124  -2.6855  -2.5413   0.00    0.0
2020/04/04 10:11:17.000  -2683666.5876  -4301328.0752   3860900.8983   5   9   3.8797   4.1857   2.7605   3.6126  -2.6856  -2.5412   0.00    0.0
2020/04/04 10:11:18.000  -2683663.3639  -4301381.7690   3860843.7648   5   9   3.8797   4.1861   2.7605   3.6128  -2.6857  -2.5412   0.00    0.0
2020/04/04 10:11:19.000  -2683661.9539  -4301434.8835   3860786.0192   5   9   3.8797   4.1866   2.7604   3.6130  -2.6858  -2.5411   0.00    0.0
2020/04/04 10:11:20.000  -2683662.3571  -4301487.3822   3860727.6982   5   9   3.8797   4.1870   2.7603   3.6132  -2.6859  -2.5411   0.00    0.0
2020/04/04 10:11:21.000  -2683664.5751  -4301539.2326   3860668.8400   5   9   3.8797   4.1874   2.7603   3.6135  -2.6860  -2.5410   0.00    0.0
2020/04/04 10:11:22.000  -2683668.6045  -4301590.4002   3860609.4822   5   9   3.8797   4.1878   2.7602   3.6137  -2.6861  -2.5410   0.00    0.0
2020/04/04 10:11:23.000  -2683674.4427  -4301640.8508   3860549.6638   5   9   3.8797   4.1882   2.7602   3.6139  -2.6862  -2.5410   0.00    0.0
2020/04/04 10:11:24.000  -2683682.0885  -4301690.5543   3860489.4243   5   9   3.8797   4.1886   2.7601   3.6141  -2.6863  -2.5409   0.00    0.0
2020/04/04 10:11:25.000  -2683691.5349  -4301739.4766   3860428.8026   5   9   3.8796   4.1890   2.7600   3.6143  -2.6864  -2.5409   0.00    0.0
2020/04/04 10:11:26.000  -2683702.7766  -4301787.5867   3860367.8374   5   9   3.8796   4.1894   2.7600   3.6145  -2.6865  -2.5408   0.00    0.0
2020/04/04 10:11:27.000  -2683715.8049  -4301834.8520   3860306.5689   5   9   3.8796   4.1898   2.7599   3.6147  -2.6866  -2.5408   0.00    0.0
2020/04/04 10:11:28.000  -2683730.6135  -4301881.2445   3860245.0373   5   9   3.8796   4.1902   2.7598   3.6149  -2.6867  -2.5407   0.00    0.0
2020/04/04 10:11:29.000  -2683747.1903  -4301926.7305   3860183.2811   5   9   3.8796   4.1907   2.7598   3.6152  -2.6868  -2.5407   0.00    0.0
2020/04/04 10:11:30.000  -2683765.5267  -4301971.2836   3860121.3415   5   9   3.8796   4.1911   2.7597   3.6154  -2.6869  -2.5406   0.00    0.0
2020/04/04 10:11:31.000  -2683785.6098  -4302014.8737   3860059.2595   5   9   3.8796   4.1915   2.7597   3.6156  -2.6870  -2.5406   0.00    0.0
2020/04/04 10:11:32.000  -2683807.4271  -4302057.4722   3859997.0740   5   9   3.8796   4.1919   2.7596   3.6158  -2.6871  -2.5405   0.00    0.0
2020/04/04 10:11:33.000  -2683830.9642  -4302099.0520   3859934.8261   5   9   3.8795   4.1923   2.7595   3.6160  -2.6872  -2.5405   0.00    0.0
2020/04/04 10:11:34.000  -2683856.2058  -4302139.5868   3859872.5565   5   9   3.8795   4.1927   2.7595   3.6162  -2.6873  -2.5404   0.00    0.0
2020/04/04 10:11:35.000  -2683883.1338  -4302179.0468   3859810.3046   5   9   3.8795   4.1931   2.7594   3.6164  -2.6874  -2.5404   0.00    0.0
2020/04/04 10:11:36.000  -2683911.7340  -4302217.4109   3859748.1119   5   9   3.8795   4.1935   2.7593   3.6166  -2.6875  -2.5403   0.00    0.0
2020/04/04 10:11:37.000  -2683941.4333  -4302255.0335   3859685.9794   5   9   3.8795   4.1939   2.7593   3.6168  -2.6876  -2.5403   0.00    0.0
2020/04/04 10:11:38.000  -2683971.1584  -4302292.6385   3859623.8479   5   9   3.8795   4.1943   2.7592   3.6170  -2.6877  -2.5402   0.00    0.0
2020/04/04 10:11:39.000  -2684000.8839  -4302330.2426   3859561.7167   5   9   3.8795   4.1947   2.7592   3.6172  -2.6878  -2.5402   0.00    0.0
2020/04/04 10:11:40.000  -2684030.6097  -4302367.8481   3859499.5857   5   9   3.8794   4.1951   2.7591   3.6174  -2.6879  -2.5401   0.00    0.0
2020/04/04 10:11:41.000  -2684060.3345  -4302405.4527   3859437.4546   5   9   3.8794   4.1955   2.7590   3.6176  -2.6880  -2.5400   0.00    0.0
2020/04/04 10:11:42.000  -2684090.0599  -4302443.0567   3859375.3235   5   9   3.8794   4.1959   2.7590   3.6179  -2.6881  -2.5400   0.00    0.0
2020/04/04 10:11:43.000  -2684119.7856  -4302480.6617   3859313.1925   5   9   3.8794   4.1963   2.7589   3.6181  -2.6882  -2.5399   0.00    0.0
2020/04/04 10:11:44.000  -2684149.5099  -4302518.2653   3859251.0604   5   9   3.8794   4.1967   2.7588   3.6183  -2.6883  -2.5399   0.00    0.0
2020/04/04 10:11:45.000  -2684179.2349  -4302555.8701   3859188.9294   5   9   3.8794   4.1971   2.7588   3.6185  -2.6884  -2.5398   0.00    0.0
2020/04/04 10:11:46.000  -2684208.9611  -4302593.4757   3859126.7986   5   9   3.8793   4.1976   2.7587   3.6187  -2.6885  -2.5398   0.00    0.0
2020/04/04 10:11:47.000  -2684238.6862  -4302631.0791   3859064.6675   5   9   3.8793   4.1980   2.7586   3.6189  -2.6886  -2.5397   0.00    0.0
2020/04/04 10:11:48.000  -2684268.4119  -4302668.6845   3859002.5364   5   9   3.8793   4.1984   2.7586   3.6191  -2.6886  -2.5397   0.00    0.0
2020/04/04 10:11:49.000  -2684298.1370  -4302706.2897   3858940.4049   5   9   3.8793   4.1988   2.7585   3.6193  -2.6887  -2.5396   0.00    0.0
2020/04/04 10:11:50.000  -2684327.8623  -4302743.8934   3858878.2734   5   9   3.8793   4.1992   2.7584   3.6195  -2.6888  -2.5396   0.00    0.0
2020/04/04 10:11:51.000  -2684357.5875  -4302781.4976   3858816.1424   5   9   3.8793   4.1996   2.7584   3.6197  -2.6889  -2.5395   0.00    0.0
2020/04/04 10:11:52.000  -2684387.3128  -4302819.1029   3858754.0113   5   9   3.8792   4.2000   2.7583   3.6199  -2.6890  -2.5395   0.00    0.0
2020/04/04 10:11:53.000  -2684417.0374  -4302856.7069   3858691.8800   5   9   3.8792   4.2004   2.7582   3.6201  -2.6891  -2.5394   0.00    0.0
2020/04/04 10:11:54.000  -2684446.7629  -4302894.3113   3858629.7485   5   9   3.8792   4.2008   2.7582   3.6203  -2.6892  -2.5393   0.00    0.0
2020/04/04 10:11:55.000  -2684476.4888  -4302931.9164   3858567.6176   5   9   3.8792   4.2012   2.7581   3.6205  -2.6893  -2.5393   0.00    0.0
2020/04/04 10:11:56.000  -2684506.2139  -4302969.5209   3858505.4863   5   9   3.8792   4.2016   2.7580   3.6207  -2.6894  -2.5392   0.00    0.0
2020/04/04 10:11:57.000  -2684535.9390  -4303007.1258   3858443.3551   5   9   3.8791   4.2020   2.7580   3.6209  -2.6895  -2.5392   0.00    0.0
2020/04/04 10:11:58.000  -2684565.6641  -4303044.7305   3858381.2241   5   9   3.8791   4.2024   2.7579   3.6211  -2.6896  -2.5391   0.00    0.0
2020/04/04 10:11:59.000  -2684595.3888  -4303082.3340   3858319.0923   5   9   3.8791   4.2028   2.7579   3.6213  -2.6897  -2.5391   0.00    0.0
2020/04/04 10:12:00.000  -2684625.1146  -4303119.9387   3858256.9614   5   9   3.8791   4.2032   2.7578   3.6215  -2.6898  -2.5390   0.00    0.0
2020/04/04 10:12:01.000  -2684654.8407  -4303157.5447   3858194.8306   5   9   3.8791   4.2036   2.7577   3.6217  -2.6899  -2.5389   0.00    0.0
2020/04/04 10:12:02.000  -2684684.5658  -4303195.1485   3858132.6993   5   9   3.8790   4.2040   2.7577   3.6219  -2.6899  -2.5389   0.00    0.0
2020/04/04 10:12:03.000  -2684714.2909  -4303232.7532   3858070.5681   5   9   3.8790   4.2044   2.7576   3.6221  -2.6900  -2.5388   0.00    0.0
2020/04/04 10:12:04.000  -2684744.0163  -4303270.3578   3858008.4370   5   9   3.8790   4.2048   2.7575   3.6223  -2.6901  -2.5388   0.00    0.0
2020/04/04 10:12:05.000  -2684773.7405  -4303307.9615   3857946.3050   5   9   3.8790   4.2052   2.7575   3.6225  -2.6902  -2.5387   0.00    0.0
2020/04/04 10:12:06.000  -2684803.4669  -4303345.5666   3857884.1740   5   9   3.8789   4.2056   2.7574   3.6227  -2.6903  -2.5386   0.00    0.0
2020/04/04 10:12:07.000  -2684833.1916  -4303383.1710   3857822.0430   5   9   3.8789   4.2060   2.7573   3.6229  -2.6904  -2.5386   0.00    0.0
2020/04/04 10:12:08.000  -2684862.9179  -4303420.7761   3857759.9119   5   9   3.8789   4.2064   2.7573   3.6231  -2.6905  -2.5385   0.00    0.0
2020/04/04 10:12:09.000  -2684892.6422  -4303458.3804   3857697.7809   5   9   3.8789   4.2068   2.7572   3.6233  -2.6906  -2.5385   0.00    0.0
2020/04/04 10:12:10.000  -2684922.3676  -4303495.9848   3857635.6495   5   9   3.8788   4.2072   2.7571   3.6235  -2.6907  -2.5384   0.00    0.0
2020/04/04 10:12:11.000  -2684952.0934  -4303533.5903   3857573.5184   5   9   3.8788   4.2076   2.7571   3.6237  -2.6908  -2.5383   0.00    0.0
2020/04/04 10:12:12.000  -2684981.8188  -4303571.1950   3857511.3875   5   9   3.8788   4.2079   2.7570   3.6238  -2.6908  -2.5383   0.00    0.0
2020/04/04 10:12:13.000  -2685011.5433  -4303608.7983   3857449.2559   5   9   3.8788   4.2083   2.7569   3.6240  -2.6909  -2.5382   0.00    0.0
2020/04/04 10:12:14.000  -2685041.2693  -4303646.4038   3857387.1247   5   9   3.8787   4.2087   2.7568   3.6242  -2.6910  -2.5382   0.00    0.0
2020/04/04 10:12:15.000  -2685070.9937  -4303684.0071   3857324.9929   5   9   3.8787   4.2091   2.7568   3.6244  -2.6911  -2.5381   0.00    0.0
2020/04/04 10:12:16.000  -2685100.7203  -4303721.6127   3857262.8624   5   9   3.8787   4.2095   2.7567   3.6246  -2.6912  -2.5380   0.00    0.0
2020/04/04 10:12:17.000  -2685130.4447  -4303759.2170   3857200.7310   5   9   3.8787   4.2099   2.7566   3.6248  -2.6913  -2.5380   0.00    0.0
2020/04/04 10:12:18.000  -2685160.1702  -4303796.8220   3857138.5998   5   9   3.8786   4.2103   2.7566   3.6250  -2.6914  -2.5379   0.00    0.0
2020/04/04 10:12:19.000  -2685189.8952  -4303834.4260   3857076.4683   5   9   3.8786   4.2107   2.7565   3.6252  -2.6915  -2.5379   0.00    0.0
2020/04/04 10:12:20.000  -2685219.6214  -4303872.0317   3857014.3378   5   9   3.8786   4.2111   2.7564   3.6254  -2.6915  -2.5378   0.00    0.0
2020/04/04 10:12:21.000  -2685249.3464  -4303909.6354   3856952.2064   5   9   3.8785   4.2115   2.7564   3.6256  -2.6916  -2.5377   0.00    0.0
2020/04/04 10:12:22.000  -2685279.0713  -4303947.2405   3856890.0752   5   9   3.8785   4.2119   2.7563   3.6258  -2.6917  -2.5377   0.00    0.0
2020/04/04 10:12:23.000  -2685308.7964  -4303984.8448   3856827.9437   5   9   3.8785   4.2123   2.7562   3.6260  -2.6918  -2.5376   0.00    0.0
2020/04/04 10:12:24.000  -2685338.5224  -4304022.4499   3856765.8126   5   9   3.8785   4.2127   2.7562   3.6262  -2.6919  -2.5375   0.00    0.0
2020/04/04 10:12:25.000  -2685368.2472  -4304060.0543   3856703.6812   5   9   3.8784   4.2131   2.7561   3.6263  -2.6920  -2.5375   0.00    0.0
2020/04/04 10:12:26.000  -2685397.9724  -4304097.6583   3856641.5501   5   9   3.8784   4.2135   2.7560   3.6265  -2.6920  -2.5374   0.00    0.0
2020/04/04 10:12:27.000  -2685427.6985  -4304135.2636   3856579.4194   5   9   3.8784   4.2139   2.7560   3.6267  -2.6921  -2.5373   0.00    0.0
2020/04/04 10:12:28.000  -2685457.4238  -4304172.8688   3856517.2882   5   9   3.8783   4.2143   2.7559   3.6269  -2.6922  -2.5373   0.00    0.0
2020/04/04 10:12:29.000  -2685487.1477  -4304210.4714   3856455.1562   5   9   3.8783   4.2146   2.7558   3.6271  -2.6923  -2.5372   0.00    0.0
2020/04/04 10:12:30.000  -2685516.8744  -4304248.0773   3856393.0254   5   9   3.8783   4.2150   2.7558   3.6273  -2.6924  -2.5372   0.00    0.0
2020/04/04 10:12:31.000  -2685546.5988  -4304285.6812   3856330.8943   5   9   3.8782   4.2154   2.7557   3.6275  -2.6925  -2.5371   0.00    0.0
2020/04/04 10:12:32.000  -2685576.3246  -4304323.2864   3856268.7631   5   9   3.8782   4.2158   2.7556   3.6277  -2.6925  -2.5370   0.00    0.0
2020/04/04 10:12:33.000  -2685606.0495  -4304360.8909   3856206.6320   5   9   3.8782   4.2162   2.7555   3.6279  -2.6926  -2.5370   0.00    0.0
2020/04/04 10:12:34.000  -2685635.7745  -4304398.4948   3856144.5004   5   9   3.8782   4.2166   2.7555   3.6280  -2.6927  -2.5369   0.00    0.0
2020/04/04 10:12:35.000  -2685665.5003  -4304436.1001   3856082.3696   5   9   3.8781   4.2170   2.7554   3.6282  -2.6928  -2.5368   0.00    0.0
2020/04/04 10:12:36.000  -2685695.2246  -4304473.7035   3856020.2376   5   9   3.8781   4.2174   2.7553   3.6284  -2.6929  -2.5368   0.00    0.0
