     3.03           OBSERVATION DATA    M (MIXED)           RINEX VERSION / TYPE
G    4 C1C L1C D1C S1C                                      SYS / # / OBS TYPES 
                                                            END OF HEADER       
> 2020 04 04 10 05 48.0000000  0  9      -0.000000000000
G01  22314383.484 8 117262851.589 8      2685.014          48.000
G08  23579642.083 8 123911823.185 8     -2456.796          48.000
G10  22304577.045 8 117211318.932 8     -1906.365          48.000
G11  21119272.169 8 110982504.290 8        30.315          48.000
G14  20492761.543 8 107690172.966 8      -193.721          48.000
G22  23303936.639 8 122462984.708 8      2417.065          48.000
G27  24730608.421 8 129960183.991 8     -3198.186          48.000
G31  22257688.731 8 116964917.688 8      3153.149          48.000
G32  20752643.377 8 109055859.738 8     -1550.195          48.000
> 2020 04 04 10 05 49.0000000  0  9      -0.000000000000
G01  22313872.578 8 117260166.761 8      2684.623          48.000
G08  23580109.621 8 123914280.113 8     -2457.065          48.000
G10  22304939.833 8 117213225.393 8     -1906.580          48.000
G11  21119266.470 8 110982474.344 8        29.593          48.000
G14  20492798.447 8 107690366.895 8      -194.166          48.000
G22  23303476.689 8 122460567.655 8      2416.997          48.000
G27  24731217.014 8 129963382.162 8     -3198.141          48.000
G31  22257088.736 8 116961764.695 8      3152.823          48.000
G32  20752938.401 8 109057410.096 8     -1550.550          48.000
> 2020 04 04 10 05 50.0000000  0  9      -0.000000000000
G01  22313361.746 8 117257482.325 8      2684.231          48.000
G08  23580577.211 8 123916737.310 8     -2457.334          48.000
G10  22305302.662 8 117215132.069 8     -1906.795          48.000
G11  21119260.909 8 110982445.120 8        28.871          48.000
G14  20492835.435 8 107690561.269 8      -194.611          48.000
G22  23303016.751 8 122458150.670 8      2416.929          48.000
G27  24731825.598 8 129966580.288 8     -3198.095          48.000
G31  22256488.803 8 116958612.029 8      3152.497          48.000
G32  20753233.492 8 109058960.809 8     -1550.906          48.000
> 2020 04 04 10 05 51.0000000  0  9      -0.000000000000
G01  22312850.989 8 117254798.280 8      2683.840          48.000
G08  23581044.852 8 123919194.776 8     -2457.603          48.000
G10  22305665.532 8 117217038.960 8     -1907.010          48.000
G11  21119255.485 8 110982416.617 8        28.149          48.000
G14  20492872.508 8 107690756.088 8      -195.056          48.000
G22  23302556.826 8 122455733.753 8      2416.861          48.000
G27  24732434.174 8 129969778.369 8     -3198.050          48.000
G31  22255888.931 8 116955459.688 8      3152.171          48.000
G32  20753528.651 8 109060511.878 8     -1551.261          48.000
> 2020 04 04 10 05 52.0000000  0  9      -0.000000000000
G01  22312340.306 8 117252114.626 8      2683.449          48.000
G08  23581512.544 8 123921652.511 8     -2457.871          48.000
G10  22306028.443 8 117218946.066 8     -1907.225          48.000
G11  21119250.199 8 110982388.837 8        27.427          48.000
G14  20492909.665 8 107690951.352 8      -195.501          48.000
G22  23302096.915 8 122453316.903 8      2416.793          48.000
G27  24733042.741 8 129972976.405 8     -3198.005          48.000
G31  22255289.122 8 116952307.674 8      3151.844          48.000
G32  20753823.877 8 109062063.303 8     -1551.617          48.000
> 2020 04 04 10 05 53.0000000  0  9      -0.000000000000
G01  22311829.697 8 117249431.364 8      2683.057          48.000
G08  23581980.287 8 123924110.515 8     -2458.140          48.000
G10  22306391.394 8 117220853.387 8     -1907.439          48.000
G11  21119245.050 8 110982361.779 8        26.705          48.000
G14  20492946.907 8 107691147.061 8      -195.946          48.000
G22  23301637.016 8 122450900.122 8      2416.725          48.000
G27  24733651.299 8 129976174.395 8     -3197.960          48.000
G31  22254689.375 8 116949155.986 8      3151.518          48.000
G32  20754119.171 8 109063615.082 8     -1551.972          48.000
> 2020 04 04 10 05 54.0000000  0  9      -0.000000000000
G01  22311319.028 8 117246747.782 8      2684.799          48.000
G08  23582448.052 8 123926568.633 8     -2457.946          48.000
G10  22306754.459 8 117222761.302 8     -1908.793          48.000
G11  21119239.964 8 110982335.054 8        27.147          48.000
G14  20492984.222 8 107691343.149 8      -196.195          48.000
G22  23301176.994 8 122448482.692 8      2418.805          48.000
G27  24734259.905 8 129979372.633 8     -3198.792          48.000
G31  22254089.821 8 116946005.312 8      3149.129          48.000
G32  20754414.519 8 109065167.146 8     -1552.112          48.000
> 2020 04 04 10 05 55.0000000  0  9      -0.000000000000
G01  22310807.621 8 117244060.325 8      2690.808          48.000
G08  23582915.692 8 123929026.095 8     -2456.829          48.000
G10  22307117.998 8 117224671.711 8     -1912.428          48.000
G11  21119234.573 8 110982306.724 8        29.915          48.000
G14  20493021.546 8 107691539.291 8      -196.053          48.000
G22  23300716.167 8 122446061.036 8      2425.179          48.000
G27  24734868.835 8 129982572.580 8     -3201.379          48.000
G31  22253491.114 8 116942859.088 8      3142.618          48.000
G32  20754709.853 8 109066719.133 8     -1551.820          48.000
> 2020 04 04 10 05 56.0000000  0  9      -0.000000000000
G01  22310294.666 8 117241364.727 8      2701.081          48.000
G08  23583383.032 8 123931481.980 8     -2454.791          48.000
G10  22307482.446 8 117226586.895 8     -1918.345          48.000
G11  21119228.434 8 110982274.463 8        35.008          48.000
G14  20493058.806 8 107691735.094 8      -195.518          48.000
G22  23300253.719 8 122443630.857 8      2435.849          48.000
G27  24735478.425 8 129985775.993 8     -3205.724          48.000
G31  22252894.038 8 116939721.436 8      3131.985          48.000
G32  20755005.090 8 109068270.613 8     -1551.098          48.000
> 2020 04 04 10 05 57.0000000  0  9      -0.000000000000
G01  22309779.484 8 117238657.435 8      2713.484          48.000
G08  23583849.926 8 123933935.520 8     -2452.295          48.000
G10  22307848.165 8 117228508.759 8     -1925.406          48.000
G11  21119221.178 8 110982236.335 8        41.260          48.000
G14  20493095.940 8 107691930.230 8      -194.785          48.000
G22  23299788.968 8 122441188.577 8      2448.666          48.000
G27  24736088.954 8 129988984.337 8     -3210.949          48.000
G31  22252299.247 8 116936595.790 8      3119.292          48.000
G32  20755300.162 8 109069821.227 8     -1550.159          48.000
> 2020 04 04 10 05 58.0000000  0  9      -0.000000000000
G01  22309261.943 8 117235937.741 8      2725.884          48.000
G08  23584316.345 8 123936386.566 8     -2449.803          48.000
G10  22308215.228 8 117230437.687 8     -1932.473          48.000
G11  21119212.734 8 110982191.958 8        47.507          48.000
G14  20493132.933 8 107692124.633 8      -194.050          48.000
G22  23299321.778 8 122438733.480 8      2461.482          48.000
G27  24736700.477 8 129992197.908 8     -3216.178          48.000
G31  22251706.871 8 116933482.836 8      3106.602          48.000
G32  20755595.055 8 109071370.901 8     -1549.220          48.000
> 2020 04 04 10 05 59.0000000  0  9      -0.000000000000
G01  22308742.043 8 117233205.649 8      2738.280          48.000
G08  23584782.291 8 123938835.121 8     -2447.315          48.000
G10  22308583.637 8 117232373.685 8     -1939.546          48.000
G11  21119203.101 8 110982141.336 8        53.749          48.000
G14  20493169.787 8 107692318.299 8      -193.313          48.000
G22  23298852.149 8 122436265.568 8      2474.297          48.000
G27  24737312.996 8 129995416.710 8     -3221.410          48.000
G31  22251116.909 8 116930382.572 8      3093.914          48.000
G32  20755889.770 8 109072919.637 8     -1548.281          48.000
> 2020 04 04 10 06  0.0000000  0  9      -0.000000000000
G01  22308219.784 8 117230461.163 8      2750.673          48.000
G08  23585247.763 8 123941281.191 8     -2444.831          48.000
G10  22308953.392 8 117234316.759 8     -1946.624          48.000
G11  21119192.280 8 110982084.476 8        59.986          48.000
G14  20493206.500 8 107692511.227 8      -192.573          48.000
G22  23298380.082 8 122433784.841 8      2487.111          48.000
G27  24737926.510 8 129998640.745 8     -3226.645          48.000
G31  22250529.362 8 116927294.995 8      3081.227          48.000
G32  20756184.306 8 109074467.434 8     -1547.342          48.000
> 2020 04 04 10 06  1.0000000  0  9      -0.000000000000
G01  22307695.167 8 117227704.285 8      2763.062          48.000
G08  23585712.763 8 123943724.780 8     -2442.352          48.000
G10  22309324.494 8 117236266.913 8     -1953.708          48.000
G11  21119180.274 8 110982021.381 8        66.217          48.000
G14  20493243.072 8 107692703.415 8      -191.832          48.000
G22  23297905.576 8 122431291.300 8      2499.925          48.000
G27  24738541.022 8 130001870.018 8     -3231.884          48.000
G31  22249944.229 8 116924220.103 8      3068.543          48.000
G32  20756478.664 8 109076014.291 8     -1546.402          48.000
> 2020 04 04 10 06  2.0000000  0  9      -0.000000000000
G01  22307168.193 8 117224935.020 8      2775.448          48.000
G08  23586177.292 8 123946165.891 8     -2439.877          48.000
G10  22309696.945 8 117238224.154 8     -1960.797          48.000
G11  21119167.082 8 110981952.057 8        72.443          48.000
G14  20493279.503 8 107692894.859 8      -191.088          48.000
G22  23297428.632 8 122428784.946 8      2512.738          48.000
G27  24739156.530 8 130005104.531 8     -3237.126          48.000
G31  22249361.509 8 116921157.894 8      3055.861          48.000
G32  20756772.842 8 109077560.208 8     -1545.462          48.000
> 2020 04 04 10 06  3.0000000  0  9      -0.000000000000
G01  22306638.862 8 117222153.372 8      2787.830          48.000
G08  23586641.350 8 123948604.530 8     -2437.406          48.000
G10  22310070.745 8 117240188.486 8     -1967.892          48.000
G11  21119152.705 8 110981876.509 8        78.664          48.000
G14  20493315.792 8 107693085.559 8      -190.342          48.000
G22  23296949.250 8 122426265.779 8      2525.550          48.000
G27  24739773.036 8 130008344.288 8     -3242.372          48.000
G31  22248781.203 8 116918108.365 8      3043.182          48.000
G32  20757066.842 8 109079105.185 8     -1544.522          48.000
> 2020 04 04 10 06  4.0000000  0  9      -0.000000000000
G01  22306107.175 8 117219359.343 8      2800.208          48.000
G08  23587104.938 8 123951040.699 8     -2434.940          48.000
G10  22310445.897 8 117242159.916 8     -1974.992          48.000
G11  21119137.146 8 110981794.743 8        84.880          48.000
G14  20493351.938 8 107693275.512 8      -189.594          48.000
G22  23296467.430 8 122423733.800 8      2538.361          48.000
G27  24740390.541 8 130011589.292 8     -3247.621          48.000
G31  22248203.309 8 116915071.516 8      3030.504          48.000
G32  20757360.662 8 109080649.222 8     -1543.582          48.000
> 2020 04 04 10 06  5.0000000  0  9      -0.000000000000
G01  22305573.133 8 117216552.937 8      2812.583          48.000
G08  23587568.058 8 123953474.405 8     -2432.478          48.000
G10  22310822.399 8 117244138.450 8     -1982.098          48.000
G11  21119120.404 8 110981706.763 8        91.091          48.000
G14  20493387.943 8 107693464.716 8      -188.844          48.000
G22  23295983.172 8 122421189.010 8      2551.171          48.000
G27  24741009.045 8 130014839.546 8     -3252.873          48.000
G31  22247627.827 8 116912047.343 8      3017.829          48.000
G32  20757654.304 8 109082192.319 8     -1542.642          48.000
> 2020 04 04 10 06  6.0000000  0  9      -0.000000000000
G01  22305036.737 8 117213734.158 8      2824.955          48.000
G08  23588030.709 8 123955905.650 8     -2430.020          48.000
G10  22311200.255 8 117246124.091 8     -1989.209          48.000
G11  21119102.480 8 110981612.575 8        97.297          48.000
G14  20493423.804 8 107693653.169 8      -188.092          48.000
G22  23295496.476 8 122418631.410 8      2563.981          48.000
G27  24741628.549 8 130018095.055 8     -3258.129          48.000
G31  22247054.757 8 116909035.844 8      3005.155          48.000
G32  20757947.767 8 109083734.475 8     -1541.701          48.000
> 2020 04 04 10 06  7.0000000  0  9      -0.000000000000
G01  22304497.986 8 117210903.009 8      2837.322          48.000
G08  23588492.893 8 123958334.439 8     -2427.566          48.000
G10  22311579.464 8 117248116.847 8     -1996.326          48.000
G11  21119083.377 8 110981512.185 8       103.497          48.000
G14  20493459.522 8 107693840.868 8      -187.337          48.000
G22  23295007.343 8 122416061.001 8      2576.790          48.000
G27  24742249.053 8 130021355.821 8     -3263.388          48.000
G31  22246484.099 8 116906037.017 8      2992.484          48.000
G32  20758241.051 8 109085275.691 8     -1540.760          48.000
> 2020 04 04 10 06  8.0000000  0  9      -0.000000000000
G01  22303956.883 8 117208059.494 8      2849.687          48.000
G08  23588954.610 8 123960760.777 8     -2425.117          48.000
G10  22311960.028 8 117250116.722 8     -2003.448          48.000
G11  21119063.094 8 110981405.596 8       109.692          48.000
G14  20493495.096 8 107694027.812 8      -186.581          48.000
G22  23294515.772 8 122413477.783 8      2589.598          48.000
G27  24742870.558 8 130024621.848 8     -3268.650          48.000
G31  22245915.852 8 116903050.861 8      2979.815          48.000
G32  20758534.155 8 109086815.965 8     -1539.819          48.000
> 2020 04 04 10 06  9.0000000  0  9      -0.000000000000
G01  22303413.427 8 117205203.616 8      2862.047          48.000
G08  23589415.862 8 123963184.667 8     -2422.672          48.000
G10  22312341.948 8 117252123.722 8     -2010.576          48.000
G11  21119041.632 8 110981292.815 8       115.882          48.000
G14  20493530.526 8 107694213.998 8      -185.822          48.000
G22  23294021.764 8 122410881.757 8      2602.406          48.000
G27  24743493.065 8 130027893.139 8     -3273.916          48.000
G31  22245350.015 8 116900077.372 8      2967.148          48.000
G32  20758827.081 8 109088355.299 8     -1538.878          48.000
> 2020 04 04 10 06 10.0000000  0  9      -0.000000000000
G01  22302867.619 8 117202335.380 8      2874.404          48.000
G08  23589876.649 8 123965606.115 8     -2420.231          48.000
G10  22312725.225 8 117254137.853 8     -2017.709          48.000
G11  21119018.993 8 110981173.846 8       122.067          48.000
G14  20493565.812 8 107694399.425 8      -185.062          48.000
G22  23293525.319 8 122408272.924 8      2615.212          48.000
G27  24744116.574 8 130031169.697 8     -3279.186          48.000
G31  22244786.588 8 116897116.549 8      2954.484          48.000
G32  20759119.827 8 109089893.691 8     -1537.937          48.000
> 2020 04 04 10 06 11.0000000  0  9      -0.000000000000
G01  22302319.460 8 117199454.788 8      2886.758          48.000
G08  23590336.971 8 123968025.124 8     -2417.795          48.000
G10  22313109.860 8 117256159.120 8     -2024.848          48.000
G11  21118995.177 8 110981048.695 8       128.246          48.000
G14  20493600.952 8 107694584.089 8      -184.299          48.000
G22  23293026.437 8 122405651.285 8      2628.018          48.000
G27  24744741.087 8 130034451.527 8     -3284.458          48.000
G31  22244225.572 8 116894168.390 8      2941.821          48.000
G32  20759412.395 8 109091431.141 8     -1536.995          48.000
> 2020 04 04 10 06 12.0000000  0  9      -0.000000000000
G01  22301768.950 8 117196561.844 8      2899.108          48.000
G08  23590796.831 8 123970441.699 8     -2415.363          48.000
G10  22313495.853 8 117258187.528 8     -2031.993          48.000
G11  21118970.186 8 110980917.367 8       134.421          48.000
G14  20493635.948 8 107694767.990 8      -183.534          48.000
G22  23292525.118 8 122403016.840 8      2640.823          48.000
G27  24745366.603 8 130037738.631 8     -3289.734          48.000
G31  22243666.964 8 116891232.892 8      2929.161          48.000
G32  20759704.783 8 109092967.651 8     -1536.054          48.000
> 2020 04 04 10 06 13.0000000  0  9      -0.000000000000
G01  22301216.091 8 117193656.552 8      2911.454          48.000
G08  23591256.228 8 123972855.843 8     -2412.935          48.000
G10  22313883.207 8 117260223.084 8     -2039.143          48.000
G11  21118944.021 8 110980779.867 8       140.590          48.000
G14  20493670.797 8 107694951.125 8      -182.767          48.000
G22  23292021.362 8 122400369.591 8      2653.627          48.000
G27  24745993.123 8 130041031.012 8     -3295.014          48.000
G31  22243110.766 8 116888310.054 8      2916.503          48.000
G32  20759996.992 8 109094503.218 8     -1535.112          48.000
> 2020 04 04 10 06 14.0000000  0  9      -0.000000000000
G01  22300660.882 8 117190738.915 8      2923.797          48.000
G08  23591715.164 8 123975267.562 8     -2410.511          48.000
G10  22314271.922 8 117262265.793 8     -2046.298          48.000
G11  21118916.682 8 110980636.201 8       146.754          48.000
G14  20493705.500 8 107695133.492 8      -181.998          48.000
G22  23291515.170 8 122397709.538 8      2666.431          48.000
G27  24746620.649 8 130044328.675 8     -3300.297          48.000
G31  22242556.976 8 116885399.872 8      2903.846          48.000
G32  20760289.022 8 109096037.844 8     -1534.170          48.000
> 2020 04 04 10 06 15.0000000  0  9      -0.000000000000
G01  22300103.326 8 117187808.938 8      2936.136          48.000
G08  23592173.638 8 123977676.860 8     -2408.092          48.000
G10  22314661.999 8 117264315.660 8     -2053.460          48.000
G11  21118888.171 8 110980486.373 8       152.912          48.000
G14  20493740.057 8 107695315.089 8      -181.227          48.000
G22  23291006.542 8 122395036.681 8      2679.233          48.000
G27  24747249.180 8 130047631.623 8     -3305.583          48.000
G31  22242005.595 8 116882502.346 8      2891.192          48.000
G32  20760580.872 8 109097571.527 8     -1533.228          48.000
> 2020 04 04 10 06 16.0000000  0  9      -0.000000000000
G01  22299543.421 8 117184866.623 8      2948.472          48.000
G08  23592631.653 8 123980083.741 8     -2405.678          48.000
G10  22315053.440 8 117266372.691 8     -2060.626          48.000
G11  21118858.488 8 110980330.390 8       159.066          48.000
G14  20493774.467 8 107695495.914 8      -180.454          48.000
G22  23290495.478 8 122392351.023 8      2692.035          48.000
G27  24747878.717 8 130050939.858 8     -3310.873          48.000
G31  22241456.621 8 116879617.472 8      2878.541          48.000
G32  20760872.543 8 109099104.269 8     -1532.286          48.000
> 2020 04 04 10 06 17.0000000  0  9      -0.000000000000
G01  22298981.237 8 117181912.328 8      2959.739          48.000
G08  23593089.223 8 123982488.285 8     -2403.496          48.000
G10  22315446.208 8 117268436.700 8     -2067.225          48.000
G11  21118827.672 8 110980168.448 8       164.635          48.000
G14  20493808.736 8 107695675.998 8      -179.778          48.000
G22  23289982.045 8 122389652.921 8      2703.763          48.000
G27  24748509.234 8 130054253.239 8     -3315.726          48.000
G31  22240909.989 8 116876744.906 8      2866.920          48.000
G32  20761164.042 8 109100636.105 8     -1531.452          48.000
> 2020 04 04 10 06 18.0000000  0  9      -0.000000000000
G01  22298417.111 8 117178947.833 8      2968.874          48.000
G08  23593546.422 8 123984890.877 8     -2401.774          48.000
G10  22315840.124 8 117270506.738 8     -2072.683          48.000
G11  21118795.906 8 110980001.518 8       169.043          48.000
G14  20493842.895 8 107695855.504 8      -179.299          48.000
G22  23289466.585 8 122386944.164 8      2713.343          48.000
G27  24749140.590 8 130057571.032 8     -3319.699          48.000
G31  22240365.372 8 116873882.930 8      2857.361          48.000
G32  20761455.403 8 109102167.214 8     -1530.833          48.000
> 2020 04 04 10 06 19.0000000  0  9      -0.000000000000
G01  22297851.450 8 117175975.268 8      2975.878          48.000
G08  23594003.337 8 123987291.977 8     -2400.511          48.000
G10  22316234.969 8 117272581.662 8     -2076.998          48.000
G11  21118763.412 8 110979830.761 8       172.289          48.000
G14  20493876.981 8 107696034.629 8      -179.016          48.000
G22  23288949.507 8 122384226.902 8      2720.775          48.000
G27  24749772.618 8 130060892.358 8     -3322.793          48.000
G31  22239822.379 8 116871029.484 8      2849.861          48.000
G32  20761746.666 8 109103697.812 8     -1530.430          48.000
> 2020 04 04 10 06 20.0000000  0  9      -0.000000000000
G01  22297284.660 8 117172996.766 8      2980.750          48.000
G08  23594460.055 8 123989692.044 8     -2399.707          48.000
G10  22316630.527 8 117274660.329 8     -2080.168          48.000
G11  21118730.410 8 110979657.337 8       174.376          48.000
G14  20493911.032 8 107696213.570 8      -178.931          48.000
G22  23288431.218 8 122381503.280 8      2726.061          48.000
G27  24750405.152 8 130064216.339 8     -3325.006          48.000
G31  22239280.617 8 116868182.506 8      2844.422          48.000
G32  20762037.873 8 109105228.114 8     -1530.243          48.000
> 2020 04 04 10 06 21.0000000  0  9      -0.000000000000
G01  22296717.144 8 117170014.456 8      2983.493          48.000
G08  23594916.664 8 123992091.536 8     -2399.360          48.000
G10  22317026.579 8 117276741.594 8     -2082.194          48.000
G11  21118697.122 8 110979482.405 8       175.305          48.000
G14  20493945.086 8 107696392.524 8      -179.043          48.000
G22  23287912.128 8 122378775.446 8      2729.200          48.000
G27  24751038.022 8 130067542.092 8     -3326.338          48.000
G31  22238739.693 8 116865339.939 8      2841.041          48.000
G32  20762329.065 8 109106758.337 8     -1530.271          48.000
> 2020 04 04 10 06 22.0000000  0  9      -0.000000000000
G01  22296149.310 8 117167030.468 8      2984.106          48.000
G08  23595373.250 8 123994490.909 8     -2399.470          48.000
G10  22317422.907 8 117278824.311 8     -2083.072          48.000
G11  21118663.767 8 110979307.123 8       175.077          48.000
G14  20493979.180 8 107696571.690 8      -179.354          48.000
G22  23287392.644 8 122376045.546 8      2730.192          48.000
G27  24751671.063 8 130070868.736 8     -3326.788          48.000
G31  22238199.218 8 116862499.723 8      2839.719          48.000
G32  20762620.283 8 109108288.697 8     -1530.515          48.000
> 2020 04 04 10 06 23.0000000  0  9      -0.000000000000
G01  22295580.910 8 117164043.509 8      2989.784          48.000
G08  23595829.500 8 123996888.517 8     -2395.765          48.000
G10  22317818.736 8 117280904.404 8     -2077.143          48.000
G11  21118629.771 8 110979128.476 8       182.224          48.000
G14  20494012.349 8 107696745.991 8      -169.285          48.000
G22  23286872.633 8 122373312.869 8      2735.106          48.000
G27  24752303.919 8 130074194.414 8     -3324.569          48.000
G31  22237658.308 8 116859657.227 8      2845.254          48.000
G32  20762910.675 8 109109814.714 8     -1521.556          48.000
> 2020 04 04 10 06 24.0000000  0  9      -0.000000000000
G01  22295011.428 8 117161050.865 8      2995.466          48.000
G08  23596285.044 8 123999282.414 8     -2392.063          48.000
G10  22318213.436 8 117282978.563 8     -2071.215          48.000
G11  21118594.415 8 110978942.677 8       189.372          48.000
G14  20494043.600 8 107696910.220 8      -159.215          48.000
G22  23286351.684 8 122370575.269 8      2740.023          48.000
G27  24752936.351 8 130077517.859 8     -3322.353          48.000
G31  22237116.343 8 116856809.187 8      2850.793          48.000
G32  20763199.361 8 109111331.770 8     -1512.599          48.000
> 2020 04 04 10 06 25.0000000  0  9      -0.000000000000
G01  22294440.863 8 117158052.532 8      3001.150          48.000
G08  23596739.883 8 124001672.601 8     -2388.364          48.000
G10  22318607.007 8 117285046.789 8     -2065.290          48.000
G11  21118557.697 8 110978749.725 8       196.520          48.000
G14  20494072.935 8 107697064.376 8      -149.146          48.000
G22  23285829.798 8 122367832.744 8      2744.942          48.000
G27  24753568.358 8 130080839.073 8     -3320.140          48.000
G31  22236573.323 8 116853955.601 8      2856.335          48.000
G32  20763486.342 8 109112839.866 8     -1503.643          48.000
> 2020 04 04 10 06 26.0000000  0  9      -0.000000000000
G01  22293869.215 8 117155048.507 8      3006.838          48.000
G08  23597194.015 8 124004059.082 8     -2384.667          48.000
G10  22318999.449 8 117287109.086 8     -2059.367          48.000
G11  21118519.619 8 110978549.620 8       203.669          48.000
G14  20494100.354 8 107697208.460 8      -139.077          48.000
G22  23285306.975 8 122365085.292 8      2749.865          48.000
G27  24754199.941 8 130084158.060 8     -3317.930          48.000
G31  22236029.247 8 116851096.465 8      2861.880          48.000
G32  20763771.619 8 109114339.004 8     -1494.690          48.000
> 2020 04 04 10 06 27.0000000  0  9      -0.000000000000
G01  22293296.484 8 117152038.787 8      3012.529          48.000
G08  23597647.443 8 124006441.858 8     -2380.972          48.000
G10  22319390.764 8 117289165.455 8     -2053.446          48.000
G11  21118480.179 8 110978342.363 8       210.817          48.000
G14  20494125.855 8 107697342.472 8      -129.009          48.000
G22  23284783.213 8 122362332.909 8      2754.789          48.000
G27  24754831.101 8 130087474.823 8     -3315.723          48.000
G31  22235484.115 8 116848231.777 8      2867.428          48.000
G32  20764055.191 8 109115829.185 8     -1485.739          48.000
> 2020 04 04 10 06 28.0000000  0  9      -0.000000000000
G01  22292722.668 8 117149023.369 8      3018.222          48.000
G08  23598100.166 8 124008820.931 8     -2377.280          48.000
G10  22319780.951 8 117291215.898 8     -2047.527          48.000
G11  21118439.378 8 110978127.952 8       217.966          48.000
G14  20494149.440 8 107697466.411 8      -118.940          48.000
G22  23284258.512 8 122359575.593 8      2759.717          48.000
G27  24755461.839 8 130090789.364 8     -3313.519          48.000
G31  22234937.925 8 116845361.533 8      2872.980          48.000
G32  20764337.060 8 109117310.412 8     -1476.789          48.000
> 2020 04 04 10 06 29.0000000  0  9      -0.000000000000
G01  22292147.768 8 117146002.251 8      3023.919          48.000
G08  23598552.186 8 124011196.306 8     -2373.590          48.000
G10  22320170.010 8 117293260.419 8     -2041.611          48.000
G11  21118397.216 8 110977906.389 8       225.115          48.000
G14  20494171.108 8 107697580.279 8      -108.871          48.000
G22  23283732.873 8 122356813.341 8      2764.647          48.000
G27  24756092.154 8 130094101.688 8     -3311.319          48.000
G31  22234390.677 8 116842485.730 8      2878.534          48.000
G32  20764617.224 8 109118782.687 8     -1467.841          48.000
> 2020 04 04 10 06 30.0000000  0  9      -0.000000000000
G01  22291571.782 8 117142975.429 8      3029.618          48.000
G08  23599003.502 8 124013567.983 8     -2369.903          48.000
G10  22320557.944 8 117295299.019 8     -2035.697          48.000
G11  21118353.692 8 110977677.672 8       232.264          48.000
G14  20494190.860 8 107697684.075 8       -98.803          48.000
G22  23283206.293 8 122354046.150 8      2769.580          48.000
G27  24756722.048 8 130097411.797 8     -3309.121          48.000
G31  22233842.371 8 116839604.364 8      2884.092          48.000
G32  20764895.686 8 109120246.011 8     -1458.895          48.000
> 2020 04 04 10 06 31.0000000  0  9      -0.000000000000
G01  22290994.711 8 117139942.900 8      3035.321          48.000
G08  23599454.115 8 124015935.966 8     -2366.219          48.000
G10  22320944.750 8 117297331.700 8     -2029.785          48.000
G11  21118308.808 8 110977441.802 8       239.413          48.000
G14  20494208.695 8 107697777.799 8       -88.735          48.000
G22  23282678.773 8 122351274.019 8      2774.515          48.000
G27  24757351.521 8 130100719.694 8     -3306.927          48.000
G31  22233293.005 8 116836717.433 8      2889.654          48.000
G32  20765172.445 8 109121700.387 8     -1449.951          48.000
> 2020 04 04 10 06 32.0000000  0  9      -0.000000000000
G01  22290416.553 8 117136904.662 8      3040.978          48.000
G08  23599904.025 8 124018300.258 8     -2362.569          48.000
G10  22321330.432 8 117299358.465 8     -2023.925          48.000
G11  21118262.562 8 110977198.779 8       246.499          48.000
G14  20494224.614 8 107697861.452 8       -78.750          48.000
G22  23282150.313 8 122348496.944 8      2779.414          48.000
G27  24757980.573 8 130104025.383 8     -3304.753          48.000
G31  22232742.580 8 116833824.934 8      2895.172          48.000
G32  20765447.501 8 109123145.816 8     -1441.083          48.000
> 2020 04 04 10 06 33.0000000  0  9      -0.000000000000
G01  22289837.901 8 117133863.833 8      3040.546          48.000
G08  23600353.624 8 124020662.913 8     -2362.922          48.000
G10  22321715.590 8 117301382.483 8     -2024.245          48.000
G11  21118215.724 8 110976952.644 8       245.693          48.000
G14  20494239.629 8 107697940.358 8       -79.161          48.000
G22  23281621.395 8 122345717.468 8      2779.350          48.000
G27  24758609.422 8 130107330.001 8     -3304.781          48.000
G31  22232191.660 8 116830929.831 8      2894.900          48.000
G32  20765721.755 8 109124587.028 8     -1441.447          48.000
> 2020 04 04 10 06 34.0000000  0  9      -0.000000000000
G01  22289259.332 8 117130823.435 8      3040.114          48.000
G08  23600803.290 8 124023025.922 8     -2363.275          48.000
G10  22322100.809 8 117303406.820 8     -2024.565          48.000
G11  21118169.039 8 110976707.316 8       244.888          48.000
G14  20494254.723 8 107698019.674 8       -79.571          48.000
G22  23281092.490 8 122342938.056 8      2779.286          48.000
G27  24759238.277 8 130110634.648 8     -3304.810          48.000
G31  22231640.791 8 116828034.999 8      2894.629          48.000
G32  20765996.078 8 109126028.604 8     -1441.811          48.000
> 2020 04 04 10 06 35.0000000  0  9      -0.000000000000
G01  22288680.845 8 117127783.469 8      3039.683          48.000
G08  23601253.024 8 124025389.284 8     -2363.629          48.000
G10  22322486.089 8 117305431.478 8     -2024.886          48.000
G11  21118122.508 8 110976462.793 8       244.082          48.000
G14  20494269.894 8 107698099.402 8       -79.982          48.000
G22  23280563.597 8 122340158.708 8      2779.223          48.000
G27  24759867.137 8 130113939.323 8     -3304.838          48.000
G31  22231089.974 8 116825140.439 8      2894.357          48.000
G32  20766270.470 8 109127470.544 8     -1442.175          48.000
> 2020 04 04 10 06 36.0000000  0  9      -0.000000000000
G01  22288102.440 8 117124743.936 8      3039.251          48.000
G08  23601702.824 8 124027752.999 8     -2363.982          48.000
G10  22322871.430 8 117307456.457 8     -2025.206          48.000
G11  21118076.130 8 110976219.076 8       243.276          48.000
G14  20494285.144 8 107698179.540 8       -80.393          48.000
G22  23280034.716 8 122337379.424 8      2779.159          48.000
G27  24760496.002 8 130117244.028 8     -3304.867          48.000
G31  22230539.209 8 116822246.152 8      2894.086          48.000
G32  20766544.932 8 109128912.849 8     -1442.539          48.000
> 2020 04 04 10 06 37.0000000  0  9      -0.000000000000
G01  22287524.118 8 117121704.834 8      3038.819          48.000
G08  23602152.692 8 124030117.068 8     -2364.335          48.000
G10  22323256.832 8 117309481.755 8     -2025.526          48.000
G11  21118029.906 8 110975976.165 8       242.471          48.000
G14  20494300.472 8 107698260.089 8       -80.803          48.000
G22  23279505.848 8 122334600.204 8      2779.095          48.000
G27  24761124.873 8 130120548.761 8     -3304.895          48.000
G31  22229988.495 8 116819352.136 8      2893.814          48.000
G32  20766819.462 8 109130355.517 8     -1442.903          48.000
> 2020 04 04 10 06 38.0000000  0  9      -0.000000000000
G01  22286945.878 8 117118666.165 8      3038.387          48.000
G08  23602602.627 8 124032481.489 8     -2364.687          48.000
G10  22323642.295 8 117311507.374 8     -2025.846          48.000
G11  21117983.835 8 110975734.060 8       241.665          48.000
G14  20494315.878 8 107698341.048 8       -81.214          48.000
G22  23278976.991 8 122331821.048 8      2779.031          48.000
G27  24761753.749 8 130123853.522 8     -3304.923          48.000
G31  22229437.834 8 116816458.392 8      2893.542          48.000
G32  20767094.063 8 109131798.549 8     -1443.267          48.000
> 2020 04 04 10 06 39.0000000  0  9      -0.000000000000
G01  22286367.720 8 117115627.928 8      3037.954          48.000
G08  23603052.630 8 124034846.264 8     -2365.040          48.000
G10  22324027.819 8 117313533.314 8     -2026.166          48.000
G11  21117937.917 8 110975492.760 8       240.859          48.000
G14  20494331.362 8 107698422.419 8       -81.625          48.000
G22  23278448.147 8 122329041.956 8      2778.967          48.000
G27  24762382.631 8 130127158.312 8     -3304.951          48.000
G31  22228887.224 8 116813564.920 8      2893.270          48.000
G32  20767368.732 8 109133241.946 8     -1443.631          48.000
> 2020 04 04 10 06 40.0000000  0  9      -0.000000000000
G01  22285789.644 8 117112590.123 8      3037.522          48.000
G08  23603502.699 8 124037211.391 8     -2365.393          48.000
G10  22324413.404 8 117315559.573 8     -2026.486          48.000
G11  21117892.152 8 110975252.266 8       240.054          48.000
G14  20494346.925 8 107698504.200 8       -82.035          48.000
G22  23277919.315 8 122326262.928 8      2778.903          48.000
G27  24763011.518 8 130130463.130 8     -3304.979          48.000
G31  22228336.665 8 116810671.721 8      2892.998          48.000
G32  20767643.470 8 109134685.706 8     -1443.994          48.000
> 2020 04 04 10 06 41.0000000  0  9      -0.000000000000
G01  22285211.651 8 117109552.752 8      3037.089          48.000
G08  23603952.836 8 124039576.872 8     -2365.745          48.000
G10  22324799.049 8 117317586.153 8     -2026.807          48.000
G11  21117846.541 8 110975012.579 8       239.248          48.000
G14  20494362.565 8 107698586.392 8       -82.446          48.000
G22  23277390.495 8 122323483.964 8      2778.839          48.000
G27  24763640.410 8 130133767.976 8     -3305.007          48.000
G31  22227786.159 8 116807778.794 8      2892.725          48.000
G32  20767918.278 8 109136129.830 8     -1444.358          48.000
> 2020 04 04 10 06 42.0000000  0  9      -0.000000000000
G01  22284633.740 8 117106515.812 8      3036.657          48.000
G08  23604403.040 8 124041942.705 8     -2366.098          48.000
G10  22325184.756 8 117319613.053 8     -2027.127          48.000
G11  21117801.083 8 110974773.697 8       238.442          48.000
G14  20494378.284 8 107698668.995 8       -82.857          48.000
G22  23276861.687 8 122320705.065 8      2778.775          48.000
G27  24764269.308 8 130137072.850 8     -3305.035          48.000
G31  22227235.705 8 116804886.139 8      2892.453          48.000
G32  20768193.155 8 109137574.318 8     -1444.722          48.000
> 2020 04 04 10 06 43.0000000  0  9      -0.000000000000
G01  22284055.911 8 117103479.306 8      3036.224          48.000
G08  23604853.310 8 124044308.890 8     -2366.450          48.000
G10  22325570.524 8 117321640.273 8     -2027.447          48.000
G11  21117755.779 8 110974535.620 8       237.636          48.000
G14  20494394.081 8 107698752.008 8       -83.267          48.000
G22  23276332.892 8 122317926.230 8      2778.711          48.000
G27  24764898.211 8 130140377.752 8     -3305.062          48.000
G31  22226685.302 8 116801993.757 8      2892.181          48.000
G32  20768468.102 8 109139019.169 8     -1445.086          48.000
> 2020 04 04 10 06 44.0000000  0  9      -0.000000000000
G01  22283478.165 8 117100443.233 8      3035.791          48.000
G08  23605303.648 8 124046675.428 8     -2366.802          48.000
G10  22325956.353 8 117323667.814 8     -2027.767          48.000
G11  21117710.628 8 110974298.350 8       236.831          48.000
G14  20494409.956 8 107698835.432 8       -83.678          48.000
G22  23275804.109 8 122315147.459 8      2778.647          48.000
G27  24765527.119 8 130143682.682 8     -3305.090          48.000
G31  22226134.951 8 116799101.648 8      2891.908          48.000
G32  20768743.117 8 109140464.384 8     -1445.449          48.000
> 2020 04 04 10 06 45.0000000  0  9      -0.000000000000
G01  22282900.501 8 117097407.593 8      3035.358          48.000
G08  23605754.053 8 124049042.319 8     -2367.154          48.000
G10  22326342.242 8 117325695.675 8     -2028.087          48.000
G11  21117665.630 8 110974061.886 8       236.025          48.000
G14  20494425.909 8 107698919.266 8       -84.088          48.000
G22  23275275.338 8 122312368.752 8      2778.583          48.000
G27  24766156.033 8 130146987.640 8     -3305.117          48.000
G31  22225584.652 8 116796209.811 8      2891.635          48.000
G32  20769018.202 8 109141909.963 8     -1445.813          48.000
> 2020 04 04 10 06 46.0000000  0  9      -0.000000000000
G01  22282322.920 8 117094372.385 8      3034.925          48.000
G08  23606204.525 8 124051409.561 8     -2367.506          48.000
G10  22326728.193 8 117327723.856 8     -2028.407          48.000
G11  21117620.786 8 110973826.227 8       235.219          48.000
G14  20494441.941 8 107699003.511 8       -84.499          48.000
G22  23274746.579 8 122309590.110 8      2778.519          48.000
G27  24766784.952 8 130150292.625 8     -3305.144          48.000
G31  22225034.406 8 116793318.247 8      2891.363          48.000
G32  20769293.356 8 109143355.906 8     -1446.176          48.000
> 2020 04 04 10 06 47.0000000  0  9      -0.000000000000
G01  22281745.421 8 117091337.612 8      3034.492          48.000
G08  23606655.064 8 124053777.156 8     -2367.858          48.000
G10  22327114.204 8 117329752.358 8     -2028.728          48.000
G11  21117576.095 8 110973591.374 8       234.413          48.000
G14  20494458.050 8 107699088.167 8       -84.909          48.000
G22  23274217.832 8 122306811.533 8      2778.454          48.000
G27  24767413.876 8 130153597.638 8     -3305.172          48.000
G31  22224484.211 8 116790426.956 8      2891.090          48.000
G32  20769568.579 8 109144802.212 8     -1446.540          48.000
> 2020 04 04 10 06 48.0000000  0  9      -0.000000000000
G01  22281168.005 8 117088303.271 8      3034.059          48.000
G08  23607105.670 8 124056145.102 8     -2368.210          48.000
G10  22327500.277 8 117331781.180 8     -2029.048          48.000
G11  21117531.557 8 110973357.327 8       233.608          48.000
G14  20494474.238 8 107699173.234 8       -85.320          48.000
G22  23273689.098 8 122304033.020 8      2778.390          48.000
G27  24768042.805 8 130156902.678 8     -3305.199          48.000
G31  22223934.068 8 116787535.939 8      2890.817          48.000
G32  20769843.871 8 109146248.882 8     -1446.903          48.000
> 2020 04 04 10 06 49.0000000  0  9      -0.000000000000
G01  22280590.671 8 117085269.364 8      3033.625          48.000
G08  23607556.343 8 124058513.401 8     -2368.562          48.000
G10  22327886.410 8 117333810.322 8     -2029.368          48.000
G11  21117487.173 8 110973124.086 8       232.802          48.000
G14  20494490.503 8 107699258.710 8       -85.730          48.000
G22  23273160.376 8 122301254.571 8      2778.326          48.000
G27  24768671.739 8 130160207.745 8     -3305.226          48.000
G31  22223383.977 8 116784645.194 8      2890.544          48.000
G32  20770119.233 8 109147695.916 8     -1447.267          48.000
> 2020 04 04 10 06 50.0000000  0  9      -0.000000000000
G01  22280013.419 8 117082235.891 8      3033.192          48.000
G08  23608007.083 8 124060882.051 8     -2368.913          48.000
G10  22328272.604 8 117335839.784 8     -2029.688          48.000
G11  21117442.942 8 110972891.651 8       231.996          48.000
G14  20494506.847 8 107699344.598 8       -86.141          48.000
G22  23272631.667 8 122298476.187 8      2778.261          48.000
G27  24769300.679 8 130163512.839 8     -3305.252          48.000
G31  22222833.938 8 116781754.723 8      2890.271          48.000
G32  20770394.664 8 109149143.312 8     -1447.630          48.000
> 2020 04 04 10 06 51.0000000  0  9      -0.000000000000
G01  22279436.250 8 117079202.852 8      3032.758          48.000
G08  23608457.889 8 124063251.053 8     -2369.264          48.000
G10  22328658.860 8 117337869.567 8     -2030.008          48.000
G11  21117398.864 8 110972660.022 8       231.190          48.000
G14  20494523.269 8 107699430.896 8       -86.551          48.000
G22  23272102.970 8 122295697.868 8      2778.197          48.000
G27  24769929.624 8 130166817.961 8     -3305.279          48.000
G31  22222283.951 8 116778864.525 8      2889.997          48.000
G32  20770670.163 8 109150591.073 8     -1447.993          48.000
> 2020 04 04 10 06 52.0000000  0  9      -0.000000000000
G01  22278859.164 8 117076170.246 8      3032.324          48.000
G08  23608908.763 8 124065620.406 8     -2369.616          48.000
G10  22329045.176 8 117339899.670 8     -2030.328          48.000
G11  21117354.940 8 110972429.199 8       230.385          48.000
G14  20494539.769 8 107699517.605 8       -86.962          48.000
G22  23271574.285 8 122292919.613 8      2778.132          48.000
G27  24770558.574 8 130170123.109 8     -3305.306          48.000
G31  22221734.016 8 116775974.600 8      2889.724          48.000
G32  20770945.732 8 109152039.197 8     -1448.357          48.000
> 2020 04 04 10 06 53.0000000  0  9      -0.000000000000
G01  22278282.160 8 117073138.075 8      3031.891          48.000
G08  23609359.703 8 124067990.111 8     -2369.967          48.000
G10  22329431.553 8 117341930.093 8     -2030.648          48.000
G11  21117311.169 8 110972199.181 8       229.579          48.000
G14  20494556.348 8 107699604.724 8       -87.372          48.000
G22  23271045.612 8 122290141.424 8      2778.068          48.000
G27  24771187.529 8 130173428.284 8     -3305.332          48.000
G31  22221184.133 8 116773084.950 8      2889.451          48.000
G32  20771221.371 8 109153487.684 8     -1448.720          48.000
> 2020 04 04 10 06 54.0000000  0  9      -0.000000000000
G01  22277705.239 8 117070106.337 8      3031.456          48.000
G08  23609810.711 8 124070360.167 8     -2370.318          48.000
G10  22329817.991 8 117343960.837 8     -2030.969          48.000
G11  21117267.551 8 110971969.970 8       228.773          48.000
G14  20494573.004 8 107699692.253 8       -87.783          48.000
G22  23270516.952 8 122287363.298 8      2778.003          48.000
G27  24771816.489 8 130176733.486 8     -3305.359          48.000
G31  22220634.302 8 116770195.572 8      2889.177          48.000
G32  20771497.078 8 109154936.534 8     -1449.083          48.000
> 2020 04 04 10 06 55.0000000  0  9      -0.000000000000
G01  22277128.401 8 117067075.034 8      3031.022          48.000
G08  23610261.785 8 124072730.574 8     -2370.669          48.000
G10  22330204.490 8 117345991.900 8     -2031.289          48.000
G11  21117224.087 8 110971741.564 8       227.967          48.000
G14  20494589.738 8 107699780.193 8       -88.193          48.000
G22  23269988.304 8 122284585.238 8      2777.939          48.000
G27  24772445.454 8 130180038.715 8     -3305.385          48.000
G31  22220084.523 8 116767306.469 8      2888.903          48.000
G32  20771772.854 8 109156385.748 8     -1449.446          48.000
> 2020 04 04 10 06 56.0000000  0  9      -0.000000000000
G01  22276551.645 8 117064044.165 8      3030.588          48.000
G08  23610712.926 8 124075101.333 8     -2371.020          48.000
G10  22330591.050 8 117348023.284 8     -2031.609          48.000
G11  21117180.776 8 110971513.964 8       227.161          48.000
G14  20494606.551 8 107699868.543 8       -88.603          48.000
G22  23269459.668 8 122281807.243 8      2777.874          48.000
G27  24773074.424 8 130183343.970 8     -3305.411          48.000
G31  22219534.796 8 116764417.639 8      2888.630          48.000
G32  20772048.700 8 109157835.325 8     -1449.810          48.000
> 2020 04 04 10 06 57.0000000  0  9      -0.000000000000
G01  22275974.972 8 117061013.730 8      3030.154          48.000
G08  23611164.134 8 124077472.442 8     -2371.371          48.000
G10  22330977.671 8 117350054.989 8     -2031.929          48.000
G11  21117137.619 8 110971287.170 8       226.356          48.000
G14  20494623.442 8 107699957.304 8       -89.014          48.000
G22  23268931.045 8 122279029.312 8      2777.809          48.000
G27  24773703.399 8 130186649.251 8     -3305.437          48.000
G31  22218985.122 8 116761529.083 8      2888.356          48.000
G32  20772324.614 8 109159285.265 8     -1450.173          48.000
> 2020 04 04 10 06 58.0000000  0  9      -0.000000000000
G01  22275398.381 8 117057983.731 8      3029.719          48.000
G08  23611615.408 8 124079843.903 8     -2371.721          48.000
G10  22331364.353 8 117352087.013 8     -2032.249          48.000
G11  21117094.615 8 110971061.182 8       225.550          48.000
G14  20494640.410 8 107700046.476 8       -89.424          48.000
G22  23268402.434 8 122276251.446 8      2777.744          48.000
G27  24774332.379 8 130189954.559 8     -3305.463          48.000
G31  22218435.500 8 116758640.802 8      2888.082          48.000
G32  20772600.598 8 109160735.568 8     -1450.536          48.000
> 2020 04 04 10 06 59.0000000  0  9      -0.000000000000
G01  22274821.873 8 117054954.165 8      3029.285          48.000
G08  23612066.750 8 124082215.714 8     -2372.072          48.000
G10  22331751.096 8 117354119.358 8     -2032.569          48.000
G11  21117051.764 8 110970836.000 8       224.744          48.000
G14  20494657.457 8 107700136.057 8       -89.834          48.000
G22  23267873.835 8 122273473.646 8      2777.680          48.000
G27  24774961.365 8 130193259.892 8     -3305.489          48.000
G31  22217885.930 8 116755752.794 8      2887.808          48.000
G32  20772876.651 8 109162186.235 8     -1450.899          48.000
> 2020 04 04 10 07  0.0000000  0  9      -0.000000000000
G01  22274245.448 8 117051925.035 8      3028.850          48.000
G08  23612518.158 8 124084587.875 8     -2372.422          48.000
G10  22332137.900 8 117356152.023 8     -2032.889          48.000
G11  21117009.067 8 110970611.624 8       223.938          48.000
G14  20494674.582 8 107700226.049 8       -90.244          48.000
G22  23267345.249 8 122270695.910 8      2777.615          48.000
G27  24775590.355 8 130196565.252 8     -3305.515          48.000
G31  22217336.412 8 116752865.061 8      2887.534          48.000
G32  20773152.773 8 109163637.264 8     -1451.262          48.000
> 2020 04 04 10 07  1.0000000  0  9      -0.000000000000
G01  22273669.106 8 117048896.339 8      3028.415          48.000
G08  23612969.632 8 124086960.388 8     -2372.773          48.000
G10  22332524.764 8 117358185.008 8     -2033.210          48.000
G11  21116966.522 8 110970388.054 8       223.132          48.000
G14  20494691.785 8 107700316.452 8       -90.655          48.000
G22  23266816.675 8 122267918.240 8      2777.550          48.000
G27  24776219.350 8 130199870.638 8     -3305.540          48.000
G31  22216786.946 8 116749977.602 8      2887.259          48.000
G32  20773428.964 8 109165088.657 8     -1451.625          48.000
> 2020 04 04 10 07  2.0000000  0  9      -0.000000000000
G01  22273092.847 8 117045868.079 8      3027.980          48.000
G08  23613421.174 8 124089333.250 8     -2373.123          48.000
G10  22332911.690 8 117360218.314 8     -2033.530          48.000
G11  21116924.132 8 110970165.290 8       222.327          48.000
G14  20494709.066 8 107700407.264 8       -91.065          48.000
G22  23266288.114 8 122265140.634 8      2777.485          48.000
G27  24776848.350 8 130203176.049 8     -3305.566          48.000
G31  22216237.532 8 116747090.418 8      2886.985          48.000
G32  20773705.224 8 109166540.413 8     -1451.988          48.000
> 2020 04 04 10 07  3.0000000  0  9      -0.000000000000
G01  22272516.670 8 117042840.254 8      3027.545          48.000
G08  23613872.782 8 124091706.463 8     -2373.473          48.000
G10  22333298.677 8 117362251.940 8     -2033.850          48.000
G11  21116881.894 8 110969943.331 8       221.521          48.000
G14  20494726.425 8 107700498.487 8       -91.475          48.000
G22  23265759.565 8 122262363.094 8      2777.420          48.000
G27  24777477.354 8 130206481.487 8     -3305.591          48.000
G31  22215688.171 8 116744203.508 8      2886.711          48.000
G32  20773981.553 8 109167992.531 8     -1452.350          48.000
> 2020 04 04 10 07  4.0000000  0  9      -0.000000000000
G01  22271940.576 8 117039812.864 8      3027.110          48.000
G08  23614324.457 8 124094080.027 8     -2373.823          48.000
G10  22333685.724 8 117364285.886 8     -2034.170          48.000
G11  21116839.811 8 110969722.179 8       220.715          48.000
G14  20494743.863 8 107700590.121 8       -91.885          48.000
G22  23265231.028 8 122259585.619 8      2777.355          48.000
G27  24778106.364 8 130209786.949 8     -3305.616          48.000
G31  22215138.862 8 116741316.873 8      2886.436          48.000
G32  20774257.952 8 109169445.013 8     -1452.713          48.000
> 2020 04 04 10 07  5.0000000  0  9      -0.000000000000
G01  22271364.565 8 117036785.909 8      3026.675          48.000
G08  23614776.198 8 124096453.940 8     -2374.173          48.000
G10  22334072.833 8 117366320.152 8     -2034.490          48.000
G11  21116797.880 8 110969501.832 8       219.909          48.000
G14  20494761.378 8 107700682.164 8       -92.296          48.000
G22  23264702.504 8 122256808.209 8      2777.290          48.000
G27  24778735.379 8 130213092.438 8     -3305.641          48.000
G31  22214589.605 8 116738430.513 8      2886.161          48.000
G32  20774534.419 8 109170897.857 8     -1453.076          48.000
> 2020 04 04 10 07  6.0000000  0  9      -0.000000000000
G01  22270788.637 8 117033759.390 8      3026.239          48.000
G08  23615228.006 8 124098828.203 8     -2374.522          48.000
G10  22334460.002 8 117368354.739 8     -2034.810          48.000
G11  21116756.103 8 110969282.292 8       219.103          48.000
G14  20494778.971 8 107700774.618 8       -92.706          48.000
G22  23264173.992 8 122254030.865 8      2777.225          48.000
G27  24779364.398 8 130216397.951 8     -3305.667          48.000
G31  22214040.401 8 116735544.427 8      2885.887          48.000
G32  20774810.955 8 109172351.065 8     -1453.439          48.000
> 2020 04 04 10 07  7.0000000  0  9      -0.000000000000
G01  22270212.792 8 117030733.306 8      3025.804          48.000
G08  23615679.880 8 124101202.816 8     -2374.872          48.000
G10  22334847.232 8 117370389.646 8     -2035.130          48.000
G11  21116714.479 8 110969063.557 8       218.297          48.000
G14  20494796.643 8 107700867.482 8       -93.116          48.000
G22  23263645.493 8 122251253.586 8      2777.159          48.000
G27  24779993.422 8 130219703.490 8     -3305.691          48.000
G31  22213491.249 8 116732658.617 8      2885.612          48.000
G32  20775087.561 8 109173804.635 8     -1453.802          48.000
> 2020 04 04 10 07  8.0000000  0  9      -0.000000000000
G01  22269637.029 8 117027707.659 8      3025.368          48.000
G08  23616131.821 8 124103577.779 8     -2375.222          48.000
G10  22335234.524 8 117372424.873 8     -2035.450          48.000
G11  21116673.008 8 110968845.629 8       217.492          48.000
G14  20494814.392 8 107700960.757 8       -93.526          48.000
G22  23263117.006 8 122248476.372 8      2777.094          48.000
G27  24780622.451 8 130223009.054 8     -3305.716          48.000
G31  22212942.149 8 116729773.081 8      2885.337          48.000
G32  20775364.235 8 109175258.567 8     -1454.164          48.000
> 2020 04 04 10 07  9.0000000  0  9      -0.000000000000
G01  22269061.350 8 117024682.447 8      3024.932          48.000
G08  23616583.829 8 124105953.092 8     -2375.571          48.000
G10  22335621.876 8 117374460.420 8     -2035.771          48.000
G11  21116631.691 8 110968628.506 8       216.686          48.000
G14  20494832.220 8 107701054.441 8       -93.936          48.000
G22  23262588.532 8 122245699.224 8      2777.029          48.000
G27  24781251.485 8 130226314.643 8     -3305.741          48.000
G31  22212393.101 8 116726887.821 8      2885.062          48.000
G32  20775640.978 8 109176712.863 8     -1454.527          48.000
> 2020 04 04 10 07 10.0000000  0  9      -0.000000000000
G01  22268485.754 8 117021657.671 8      3024.497          48.000
G08  23617035.903 8 124108328.754 8     -2375.920          48.000
G10  22336009.289 8 117376496.288 8     -2036.091          48.000
G11  21116590.528 8 110968412.189 8       215.880          48.000
G14  20494850.126 8 107701148.536 8       -94.346          48.000
G22  23262060.070 8 122242922.141 8      2776.964          48.000
G27  24781880.524 8 130229620.257 8     -3305.766          48.000
G31  22211844.106 8 116724002.836 8      2884.787          48.000
G32  20775917.791 8 109178167.521 8     -1454.889          48.000
> 2020 04 04 10 07 11.0000000  0  9      -0.000000000000
G01  22267910.240 8 117018633.331 8      3024.061          48.000
G08  23617488.044 8 124110704.766 8     -2376.270          48.000
G10  22336396.763 8 117378532.476 8     -2036.411          48.000
G11  21116549.517 8 110968196.678 8       215.074          48.000
G14  20494868.109 8 107701243.041 8       -94.756          48.000
G22  23261531.620 8 122240145.124 8      2776.898          48.000
G27  24782509.567 8 130232925.896 8     -3305.790          48.000
G31  22211295.164 8 116721118.126 8      2884.511          48.000
G32  20776194.672 8 109179622.542 8     -1455.252          48.000
> 2020 04 04 10 07 12.0000000  0  9      -0.000000000000
G01  22267334.810 8 117015609.427 8      3023.625          48.000
G08  23617940.251 8 124113081.126 8     -2376.619          48.000
G10  22336784.298 8 117380568.984 8     -2036.731          48.000
G11  21116508.660 8 110967981.973 8       214.268          48.000
G14  20494886.171 8 107701337.956 8       -95.167          48.000
G22  23261003.183 8 122237368.172 8      2776.833          48.000
G27  24783138.615 8 130236231.559 8     -3305.815          48.000
G31  22210746.274 8 116718233.692 8      2884.236          48.000
G32  20776471.623 8 109181077.926 8     -1455.614          48.000
> 2020 04 04 10 07 13.0000000  0  9      -0.000000000000
G01  22266759.462 8 117012585.959 8      3023.188          48.000
G08  23618392.524 8 124115457.837 8     -2376.968          48.000
G10  22337171.894 8 117382605.812 8     -2037.051          48.000
G11  21116467.956 8 110967768.075 8       213.462          48.000
G14  20494904.311 8 107701433.282 8       -95.577          48.000
G22  23260474.759 8 122234591.286 8      2776.767          48.000
G27  24783767.667 8 130239537.247 8     -3305.839          48.000
G31  22210197.436 8 116715349.533 8      2883.961          48.000
G32  20776748.642 8 109182533.672 8     -1455.977          48.000
> 2020 04 04 10 07 14.0000000  0  9      -0.000000000000
G01  22266184.198 8 117009562.928 8      3022.752          48.000
G08  23618844.864 8 124117834.896 8     -2377.317          48.000
G10  22337559.551 8 117384642.961 8     -2037.371          48.000
G11  21116427.406 8 110967554.982 8       212.656          48.000
G14  20494922.529 8 107701529.017 8       -95.987          48.000
G22  23259946.346 8 122231814.465 8      2776.702          48.000
G27  24784396.724 8 130242842.960 8     -3305.863          48.000
G31  22209648.651 8 116712465.650 8      2883.685          48.000
G32  20777025.731 8 109183989.781 8     -1456.339          48.000
> 2020 04 04 10 07 15.0000000  0  9      -0.000000000000
G01  22265609.017 8 117006540.334 8      3022.316          48.000
G08  23619297.271 8 124120212.304 8     -2377.665          48.000
G10  22337947.269 8 117386680.430 8     -2037.691          48.000
G11  21116387.009 8 110967342.695 8       211.850          48.000
G14  20494940.825 8 107701625.163 8       -96.397          48.000
G22  23259417.947 8 122229037.711 8      2776.636          48.000
G27  24785025.786 8 130246148.697 8     -3305.887          48.000
G31  22209099.918 8 116709582.043 8      2883.409          48.000
G32  20777302.888 8 109185446.252 8     -1456.702          48.000
> 2020 04 04 10 07 16.0000000  0  9      -0.000000000000
G01  22265033.919 8 117003518.176 8      3021.879          48.000
G08  23619749.744 8 124122590.061 8     -2378.014          48.000
G10  22338335.048 8 117388718.219 8     -2038.011          48.000
G11  21116346.766 8 110967131.214 8       211.045          48.000
G14  20494959.198 8 107701721.718 8       -96.807          48.000
G22  23258889.560 8 122226261.022 8      2776.571          48.000
G27  24785654.853 8 130249454.458 8     -3305.911          48.000
G31  22208551.237 8 116706698.711 8      2883.134          48.000
G32  20777580.115 8 109186903.085 8     -1457.064          48.000
> 2020 04 04 10 07 17.0000000  0  9      -0.000000000000
G01  22264458.904 8 117000496.455 8      3021.442          48.000
G08  23620202.283 8 124124968.167 8     -2378.362          48.000
G10  22338722.888 8 117390756.328 8     -2038.332          48.000
G11  21116306.676 8 110966920.539 8       210.239          48.000
G14  20494977.650 8 107701818.684 8       -97.217          48.000
G22  23258361.185 8 122223484.399 8      2776.505          48.000
G27  24786283.924 8 130252760.243 8     -3305.935          48.000
G31  22208002.610 8 116703815.656 8      2882.858          48.000
G32  20777857.410 8 109188360.281 8     -1457.426          48.000
> 2020 04 04 10 07 18.0000000  0  9      -0.000000000000
G01  22263883.972 8 116997475.171 8      3021.005          48.000
G08  23620654.888 8 124127346.621 8     -2378.711          48.000
G10  22339110.789 8 117392794.757 8     -2038.652          48.000
G11  21116266.739 8 110966710.670 8       209.433          48.000
G14  20494996.180 8 107701916.059 8       -97.627          48.000
G22  23257832.823 8 122220707.841 8      2776.439          48.000
G27  24786913.000 8 130256066.053 8     -3305.959          48.000
G31  22207454.034 8 116700932.877 8      2882.582          48.000
G32  20778134.774 8 109189817.840 8     -1457.789          48.000
> 2020 04 04 10 07 19.0000000  0  9      -0.000000000000
G01  22263309.123 8 116994454.324 8      3020.569          48.000
G08  23621107.560 8 124129725.424 8     -2379.059          48.000
G10  22339498.750 8 117394833.507 8     -2038.972          48.000
G11  21116226.955 8 110966501.607 8       208.627          48.000
G14  20495014.788 8 107702013.845 8       -98.037          48.000
G22  23257304.474 8 122217931.350 8      2776.374          48.000
